name,lat,lon
Church of God of Prophecy,44.9684466,-122.97128640000001
Messiah Lutheran Church,44.9648382,-122.9609657
Oak Park Community Church of God,44.9639035,-122.98278970000001
Free Methodist Church,44.970572100000005,-122.97411500000001
Berlin Union Church,44.4917898,-122.75730920000001
Eden Church,43.255948100000005,-123.48785830000001
Foots Creek Chapel,42.3928993,-123.1411623
Hebron Church,43.6990108,-123.07868880000001
Holy Rosary Church,44.994053900000004,-122.6184527
Malheur Butte Church,43.987940300000005,-117.0854441
Meadowbrook Church,45.1968775,-122.54371560000001
Ontario Heights Church,44.0687742,-117.0434987
Pine Grove Church,45.590977,-117.77270360000001
Pleasant Grove Church,44.800121700000005,-122.88898
Rock Creek Church,45.1587321,-122.71453550000001
Smyrna Church,45.1565103,-122.681757
Trinity Lutheran Church,45.071232300000005,-122.742868
Tutuilla Mission,45.630424700000006,-118.7149045
Chapel of the Valley,44.5391757,-123.6803033
Church in the Wildwood,45.104555500000004,-123.7128904
Old German Brethren Church,44.8978953,-123.38204850000001
Williamson River Mission,42.5162476,-121.9186262
Brigittine Monastery,45.0901165,-123.2692712
Bethel Community Church,45.0412289,-123.18399040000001
Mountaindale Church,45.7295573,-123.08649860000001
Cedar Grove Church,43.074006600000004,-123.1970072
Ten O'Clock Church,45.2654007,-122.5186991
The Refuge,44.5415877,-123.35723270000001
Hauser Community Church,43.5116667,-124.21194440000001
All City Church,45.5026791,-122.59409830000001
Beavercreek Baptist Church,45.2872222,-122.5466667
Sonshine Christian Center,45.2652778,-122.40888890000001
Unbroken Fellowship Church,45.2283333,-122.4325
Grand View Baptist Church,45.2908333,-122.5627778
Living Word Fellowship,45.4308333,-122.32638890000001
Canby Hispanic Foursquare Church,45.274134600000004,-122.6887662
Smyrna United Church of Christ,45.1563889,-122.6819444
Christ the Vine Lutheran Church,45.4138889,-122.4711111
Carver Community Church,45.3941667,-122.495
Hillside Christian Fellowship,45.419964500000006,-122.46616370000001
Colton Community Church,45.1722222,-122.42972220000001
Aspen Meadow Church,45.161388900000006,-122.4138889
Sunnyside Community Church,45.409722200000004,-122.494166
The Voice of the Trumpet Ministries,45.417500000000004,-122.4597222
Hollyview Baptist Church,45.421111100000005,-122.39972220000001
Damascus Community Church,45.418888900000006,-122.44972220000001
Eagle Creek Presbyterian Church,45.3572222,-122.36055560000001
Eagle Creek Foursquare Church,45.3386111,-122.34388890000001
Dover Community Church,45.3308333,-122.22972220000001
Estacada Christian Church,45.3125,-122.34333330000001
Dodge Community Church,45.2155556,-122.29805560000001
Estacada Bible Fellowship,45.341666700000005,-122.4191667
Garfield Community Church,45.273333300000004,-122.27888890000001
George Community Church,45.293888900000006,-122.2325
New Life Church,45.3919444,-122.6005556
Town Center Baptist Church,45.4454742,-122.5766059
Happy Valley Evangelical Church,45.4467246,-122.5310917
Theophilus Church,45.4030556,-122.58722220000001
Calvary Chapel Southeast Portland,45.424851100000005,-122.5892687
The Church of Jesus Christ of Latter-day Saints,45.1488889,-122.59444440000001
Molalla Christian Church,45.1452778,-122.5766667
The Country Christian Church,45.1719444,-122.5186111
The Evangelical Church at Liberal,45.185833300000006,-122.5888889
Molalla Church of the Nazarene,45.146666700000004,-122.56138890000001
Molalla United Methodist Church,45.1441667,-122.56333330000001
New Beginnings Foursquare Church,45.1383333,-122.5811111
Molalla Assembly of God,45.146666700000004,-122.5777778
Meadowbrook Community Church,45.197045900000006,-122.54369650000001
Mulino Grace Community Church,45.2172222,-122.5802778
Christ Light Community Church,45.1986811,-122.4729896
Clarkes United Methodist Church,45.2069552,-122.50563220000001
New Martyrs of Russia Orthodox Church,45.2436111,-122.58305560000001
Faith Fellowship Ministries,45.3713889,-122.5208333
Evergreen Community Church,45.3444444,-122.51833330000001
Viola Ridge Christian Center,45.303333300000006,-122.4391667
Calvary Chapel Oregon City,45.3096462,-122.5531476
Community Worship Church,45.388888900000005,-122.2061111
Gospel of Our Savior Community Chapel,45.388611100000006,-122.2880556
Hope Fellowship Church,45.2744444,-122.85638890000001
Creekside Bible Church,45.310359600000005,-122.78771590000001
BBC Ministries,42.207222200000004,-121.7283333
Calvary Chapel,45.498045700000006,-122.41364800000001
Cambodian Buddhist Society of Oregon,45.376282100000005,-122.69959320000001
Clinton Street Bible Chapel,45.50292,-122.474704
Celebration Tabernacle,45.582115400000006,-122.68713550000001
Church of God of Prophecy,45.5213175,-122.48536150000001
Samoan Seventh Day Independent Church,45.388621300000004,-122.6187761
Eagles Wings Ministries,45.4442607,-122.6144392
Freedom Foursquare Church,45.5176967,-122.49835730000001
Glenfair Family Church,45.523076200000006,-122.51481480000001
Albina Christian Life Center,45.5621748,-122.6896667
Lifeline Christian Church,45.566245800000004,-122.6750966
Campus Christian Ministry,45.5121101,-122.6833136
Portland Onnuri Church,45.422699800000004,-122.87866260000001
Rockwood Christan Church,45.522873700000005,-122.48792800000001
Chapel of Mercy,45.4834333,-122.8427652
Scholls Community Church,45.405510500000005,-122.92313610000001
A Jesus Church,45.443204200000004,-122.7844477
,45.5456475,-122.86825700000001
The Village Seventh Day Adventist Church,45.493858700000004,-122.47875830000001
Trinity Fellowship Church,45.5031654,-122.59409670000001
Union Gospel Mission Lifechange Center,45.523322500000006,-122.67366700000001
Vietnamese Baptist Church of Aloha,45.515662600000006,-122.8947722
Mountainview Christian Church,45.510778,-122.41982200000001
Multnomah Holiness Association,45.4906298,-122.550914
Neighborhood Church,45.3678475,-122.70918680000001
New Era Christian Spiritualist Church,45.2959716,-122.65441360000001
New Testament Church of God in Christ,45.5509391,-122.6529593
North Community Church,45.5766268,-122.6759042
Great Day Fellowship Church,45.389794200000004,-122.50987180000001
Safe House Church,45.446095400000004,-122.6089141
Helvetia Community Church,45.6061616,-122.926748
Iglesia de Cristo,45.5033072,-122.5281168
Iglesia del Dios Vivo Columna y Apoyo de la Verdad,45.2650578,-122.6927646
Japanese International Baptist Church,45.441347900000004,-122.764041
Johrei Fellowship Portland Center,45.5056153,-122.56291870000001
Butteville Community Church,45.2611706,-122.84000400000001
Gateway Worship Center,46.110555600000005,-123.20194400000001
Hood River Alliance Church,45.7061111,-121.5383333
Immanuel Lutheran Church,45.7077778,-121.5197222
Parkdale Church of the Nazarene,45.521666700000004,-121.5947222
Parkdale Baptist Church,45.546111100000005,-121.6091667
Pine Grove-Odell United Methodist Church,45.625555600000006,-121.5413889
Canaan Community Church,45.932222200000005,-122.91777780000001
The Church of Jesus Christ of Latter-day Saints,45.5908333,-121.16361110000001
Chinese Christian Church of Corvallis,44.5663889,-123.2677778
Alsea United Methodist Church,44.3827778,-123.59694440000001
First Church Of Christ Scientist,46.0293252,-123.91130070000001
Calvary Assembly of God,46.1527778,-123.9283333
Coos Bay Foursquare Church,43.3655595,-124.2172316
Emmanuel Baptist Church of Coquille Oregon,43.180277800000006,-124.19194440000001
College Park Community Church,43.3919483,-124.2472316
Bay Area Church of the Nazarene,43.393912300000004,-124.23716200000001
The Church of Jesus Christ of Latter-day Saints,43.114444400000004,-124.41111110000001
Arago Community Church,43.1016667,-124.19055560000001
Saint Timothys Episcopal Church,42.0568408,-124.2757627
Zion Lutheran Church,42.754444400000004,-124.49611110000001
First Community Church of Port Orford,42.7547457,-124.49499320000001
Vine Street Baptist Church,43.235277800000006,-123.3477778
New Beginnings Christian Assembly,43.216388800000004,-123.34055570000001
Church of the Nazarene,43.0297222,-123.2847222
Seventh Day Adventist Church,43.025664000000006,-123.28091570000001
Riddle First Church of God,42.9527778,-123.36138890000001
Open Bible Christian Center,42.9558333,-123.3591667
Seventh Day Adventist Church,42.4127778,-124.41972220000001
Emerald Baptist Church,44.0391497,-123.08312260000001
Bethesda Lutheran Church,44.070412700000006,-123.1715755
Art House Friends Church,43.900555600000004,-123.0383333
Trent Church of Christ,43.9408333,-122.8538889
Elmira Church of Christ,44.068611100000005,-123.35833330000001
Native American Church of Siletz,44.748888900000004,-123.7936111
Sweet Home Evangelical Church,44.3968593,-122.7280886
First Christian Church,44.6340397,-123.1087533
Calvary Baptist Church,44.61,-123.0925
Lebanon Foursquare Church,44.5341667,-122.91361110000001
Lebanon Evangelical Church,44.5408333,-122.90583330000001
Evergreen Mennonite Church,44.7066667,-122.80361110000001
Oakview Community Church of God,44.6852778,-122.88361110000001
Church of God Seventh Day,44.276935800000004,-123.16165840000001
Skyline Baptist Church,44.8877778,-123.06555560000001
Salem Chinese Evangelical Church,44.8561111,-123.02777780000001
Church of God of Prophecy Bible Place,44.7911828,-122.8428106
Jefferson Evangelical Church,44.722222200000004,-123.0105556
Chapel of The Holy Family and Retreat House at Saint Nicholas Ranch,45.0038889,-122.6633333
Apostolic Christian Church of Silverton Oregon,44.992777800000006,-122.87916670000001
Calvary Lutheran Church,44.809444400000004,-122.7936111
New Hope Community Church,44.7998653,-122.79364220000001
The Church of Jesus Christ of Latter-day Saints,45.155,-122.86000000000001
Trinity United Methodist Church,44.9220571,-122.97768140000001
Scotts Mills Friends Church,45.0397222,-122.67055560000001
Springdale Community Bible Church,45.527222200000004,-122.3255556
Saint Michaels Lutheran Church,45.5713889,-122.6355556
West Hills Community Church,44.971228100000005,-123.0684676
Kingwood Bible Church,44.943676,-123.05899000000001
Faith Evangelical Free Church,44.928888900000004,-123.27416670000001
Buena Vista Community Church,44.7688889,-123.15277780000001
Monmouth Evangelical Church,44.8494444,-123.23694440000001
Tillamook Christian Center,45.4538889,-123.81388890000001
Pacific Coast Bible Church,45.203333300000004,-123.96027780000001
Nestucca Valley Presbyterian Church,45.203926300000006,-123.9623751
The Church of Jesus Christ of Latter-day Saints,45.6155556,-123.93583330000001
Saint Peter Lutheran Church,45.489166700000006,-123.05111110000001
Chinese Evangelical Church,45.5602778,-122.91083300000001
Valley Baptist Church,45.447777800000004,-123.2466667
First Free Methodist Church of Carlton,45.294166700000005,-123.1752778
Pioneer Evangelical Church,45.2213889,-123.07833330000001
Valley Baptist Church,45.227639,-123.1876572
Saint John Lutheran Church,45.224213600000006,-123.18665730000001
McMinnville United Methodist Church,45.2088564,-123.1935133
Newberg Christian Church,45.316944400000004,-122.96472220000001
First Christian Church,45.1005556,-123.39500000000001
Trinity Lutheran Church of Sheridan,45.096944400000005,-123.3927778
The Church of Jesus Christ of Latter-day Saints,45.1263889,-123.2052778
Church of Christ,45.108611100000005,-123.1991667
The Church of Jesus Christ of Latter-day Saints,45.2197222,-123.08500000000001
Lafayette Community Church,45.243870400000006,-123.114012
Bible Baptist Church,45.245277800000004,-123.1122222
Aquarian Foundation,45.5252727,-122.64564490000001
Redeemer Lutheran Church,44.9894739,-122.98381450000001
,44.9585467,-123.05457080000001
New Song Community Church,45.5407948,-122.6620709
Wilsonville Church of Christ,45.302302600000004,-122.78654990000001
Timberline Baptist Church,45.342079600000005,-122.8727707
Crossroads Community,45.7835562,-119.22044220000001
Calvary Assembly of God Church,42.056449,-124.2794427
Brookings Presbyterian Church,42.056098500000004,-124.27992010000001
Seventh Day Adventist Church,42.053575200000004,-124.2820444
Church of the Nazarene,42.0633806,-124.301342
,44.275897,-121.19561300000001
Dayspring Christian Center,44.348288100000005,-121.18214900000001
Calvin Presbyterian Church,44.5850948,-123.26650400000001
Springwater Presbyterian Church,45.2503753,-122.34019300000001
Foothills Community Church,45.147807400000005,-122.5738881
Madison Street Community Church,43.387115200000004,-124.2714868
Fairview Mennonite Church,44.600788900000005,-123.0085341
South Albany Community Church,44.6173966,-123.08327600000001
"First Church of Christ, Scientist",42.1856981,-122.6853133
Umapine 7th day church,45.9748687,-118.49654570000001
First Baptist Church,43.9891232,-124.0994026
First Presbyterian,42.3709817,-122.92578400000001
Resurrection Lutheran,43.9510962,-124.10503860000001
Jacksonville Presbyterian Church,42.313896,-122.9556687
Table Rock Fellowship,42.3604308,-122.90448730000001
Salem Alliance Church,44.951852,-123.0287892
Salem Heights Church,44.9055552,-123.0521566
Zion Lutheren Church,45.5976829,-121.18929770000001
Grace Church,42.373333300000006,-122.9159041
North Valley Assembly of God,42.571713700000004,-123.37076250000001
Ruch Community Bible Church,42.2349109,-123.0432222
Grace Point Fellowship,42.3234769,-122.87173130000001
Hope Christian Church,42.3748519,-122.914303
Medford Friends Church,42.3535934,-122.88709910000001
The Rock,42.347396200000006,-122.8859264
SonRise,42.374907400000005,-122.9129432
,43.1276541,-121.04592650000001
Table Rock Bible Church,42.4501952,-122.91845830000001
Church of the Good Shepherd Episcopal,42.754823800000004,-122.48833920000001
Shady Point Seventh-day Adventist Church,42.5193571,-122.813669
Calvary Church,42.3164936,-122.9638996
chapel,42.4192723,-122.120294
New Beginnings Church,42.402457600000005,-122.8581333
Parkway Christian,42.437622000000005,-123.3060681
First Baptist Church,42.2819128,-123.6138025
Immanuel United Methodist,42.164721300000004,-123.64798110000001
Saint Matthias Episcopal Church,42.1718008,-123.6463434
Calvary Chapel,42.418435200000005,-124.42195240000001
Community Missionary Church of Camas Valley,43.041844000000005,-123.66837910000001
First Baptist Church,43.118827200000005,-124.4035642
First Presbyterian,42.182691000000005,-122.6874276
Grace Bible Church,42.457660700000005,-123.31215080000001
Blessed Hope,42.3840748,-123.478834
Friends in Christ,42.4224745,-123.31575040000001
Christian Center,42.432118900000006,-123.16282860000001
,42.247088600000005,-122.78782190000001
Calvary Temple Worship Center,42.3763001,-122.91364970000001
Market Street Church of Christ,44.9506254,-122.98721440000001
Redwood Christian Center,42.411338,-123.42477140000001
Faith Lutheran,42.4301167,-123.1792635
Abundant Life Spiritual Center,42.4395712,-123.31742940000001
Scio Baptist Church,44.7076007,-122.84966460000001
Church of God in Christ,44.695521,-122.8490606
Skyline Assembly of God,44.6828305,-122.84371390000001
Crabtree Christian,44.6349558,-122.8971058
Bethlehem Lutheran,44.5377317,-122.90005090000001
First Christian,44.5380223,-122.9044551
Lebanon Calvary Chapel,44.510164,-122.8889841
Grace Bible Fellowship,44.4836395,-122.87114740000001
The Church of Jesus Christ of Latter-day Saints,44.527185,-122.9120833
Lebanon Christian,44.5269555,-122.91738330000001
Trinity Lutheran Church,45.2087014,-123.193752
Path Church,42.3808335,-122.9118741
Outreach Gospel,42.0352292,-124.2410586
,42.754627500000005,-124.4941376
Harvest Outreach,42.1649636,-121.69748670000001
Merrill Baptist Church,42.0254759,-121.60828020000001
Klamath Falls Missionary Baptist Church,42.112005200000006,-121.69900500000001
Church of God,45.261820300000004,-122.69878680000001
Silverton Assembly of God,45.014298200000006,-122.7908745
Truth Tabernacle,42.3599625,-122.84751030000001
,45.6124437,-123.11555960000001
Assembly of God,42.620784,-122.8140805
Chapel on the Pines,44.459493900000005,-121.6499048
Summit community church,44.1182044,-121.3170532
Newman United Methodist Church,42.4429456,-123.32434730000001
Glendoveer Baptist Church,45.5267682,-122.4987497
First Presbyterian Church,45.3080282,-122.97494850000001
Rogue valley community,42.439841300000005,-123.17122420000001
Saint Francis Anglican Church,45.483614700000004,-122.7072504
Canyon Bible Fellowship,44.777098,-122.6171558
Congregation Ahavath Achim,45.4756842,-122.70578080000001
Christian Community Church,42.0199188,-124.22193940000001
Grants Pass Seventh-day Adventist Church,42.4539483,-123.31841200000001
True Life Fellowship Church,45.533939200000006,-122.85285230000001
Warren Community Fellowship,45.8157848,-122.853245
Kol Shalom,45.479720400000005,-122.6931947
Kingdom Hall of Jehovah's Witnesses,45.4174695,-122.2737785
Trinity Full Gospel Pentecostal Church,45.557855100000005,-122.6460627
Masjid Al-Huda,45.5263399,-122.5894631
Portland Gospel Center,45.5126597,-122.6226807
Mannahouse Church - Tigard Campus,45.4319197,-122.763569
Ashland Christian Fellowship,42.201460600000004,-122.71187950000001
Corridor Baptist Church,45.5397638,-122.9581407
Mahasiddha Kadampa Buddhist Center,45.461087400000004,-122.70702610000001
Grace Center,44.5871672,-123.2607617
Wy'east Unitarian Universalist Congregation,45.536047800000006,-122.6218242
Calvary Chapel Klamath Falls,42.2204259,-121.75189040000001
,44.2179573,-123.12832650000001
Westport Community Church,46.130482300000004,-123.3755905
New Creation Chinese Church Portland,45.4784615,-122.8122977
,45.1759129,-121.0809849
Spoke'n Hostel,44.5683321,-120.15924580000001
God's Lighthouse,45.559377100000006,-123.9161796
Turner Tabernacle,44.8406737,-122.94581960000001
Apostolic of Portland,45.5074777,-122.7826383
Williams Seventh-day Adventist Church,42.2165156,-123.2740395
John Day Church,44.424797000000005,-118.9638489
Heppner Christian Church,45.355516900000005,-119.55508870000001
Seventh Day Adventist Church,45.3584375,-119.5574457
Journey,44.0609571,-121.3137111
Hope Lutheran Church,45.136315200000006,-122.86606920000001
St. Mary's Episcopal Church,45.1460486,-122.86693910000001
Warm Springs Full Gospel Church,44.753305000000005,-121.2691982
,44.9452298,-123.06519720000001
,44.9420201,-123.05999910000001
House of Worship,44.038970000000006,-123.3479169
,44.950611300000006,-123.06505530000001
,44.9505239,-123.06132410000001
Christ Light Unity,45.521084800000004,-122.47741610000001
Springwater Church of the Nazarene,45.477216600000006,-122.3976734
City Park Church,45.497521400000004,-122.4320084
Ukrainian Bible Church,45.535108,-122.42837340000001
Rockaway Community Church,45.6094552,-123.9421674
Origins Faith Community,44.0297992,-116.9643384
Valley Evangelical Free Church,42.1769878,-123.63967120000001
Powers Church of God,42.8874154,-124.07665890000001
Powers Baptist Church,42.887567100000005,-124.07349500000001
Broadbent Community Church,43.009119000000005,-124.14625720000001
Bridge Community Church,43.0262619,-124.01036930000001
Tenmile Community United methodist Church,43.1034918,-123.56161540000001
Midvalley Missionary Church,43.098727200000006,-123.5657877
Community Baptist Church,43.114927300000005,-123.41353840000001
Seventh-Day Adventist Church,43.114862900000006,-123.39872790000001
Foursquare Gospel center,43.1159941,-123.41356210000001
Winston Assembly of God,43.117645800000005,-123.4084744
New Hope Church,43.1382915,-123.39391210000001
Saint George's Episcopal Church,43.2077672,-123.3437246
Community Presbyterian Church,45.480763100000004,-118.8360121
The Church of Jesus Christ of Latter-day Saints,45.480484000000004,-118.8287286
Fox Community Church,44.645422200000006,-119.14363660000001
M ountt Vernon Presbyterian Community Church,44.4174717,-119.1124013
Living Word Christian Center,44.4181223,-119.10757570000001
Advent Christian Church,44.4164924,-118.95402960000001
La Grande Church of the Nazarene,45.312392200000005,-118.0781089
Lagrande Seventh Day Adventist,45.3131421,-118.07044640000001
Church of Christ,45.312370400000006,-118.0819761
The Church of Jesus Christ of Latter-day Saints,45.3118003,-118.08534
Zion Lutheran Church,45.3199416,-118.0969462
First Baptist Church of Union,45.1991705,-117.86496500000001
Richland Christian Church,44.768351800000005,-117.16907760000001
Halfway Presbyterian Church,44.875431000000006,-117.10921780000001
Ukiah Presbyterian Church,45.134012500000004,-118.93202400000001
Adams Community Church,45.7671885,-118.5635177
Athena Christian Church,45.8133203,-118.4877603
Durkee Community Church,44.5814618,-117.4648944
The Church of Jesus Christ of Latter-day Saints,44.8849658,-117.11778330000001
First Baptist Church,44.4161695,-118.9547005
Cornerstone Christian Fellowship,44.416626400000006,-118.95078260000001
Hillsdale Quakers,45.479677900000006,-122.69329880000001
Calvary Lutheran Church,42.442302700000006,-123.31298860000001
Christ the King Lutheran Church,45.9299419,-118.39192240000001
The Church of Jesus Christ of Latter-day Saints,45.447759600000005,-122.577353
Faith Lutheran Church,44.6235553,-123.1132855
Faith Lutheran Church,43.3967314,-124.22365680000001
Faith Lutheran Church,44.9900193,-123.02703260000001
Faith Lutheran Church,43.211834700000004,-123.38069410000001
Lutheran Church of the Good Shepherd and St. Mark's Episcopal Church,44.6343313,-121.1217457
Grace Lutheran Church,43.978157,-117.25009730000001
Iglesia Casa de Sion,45.1387073,-122.85994830000001
Condon Baptist Church,45.235874800000005,-120.18719220000001
Wallowa Christian Church,45.570795100000005,-117.5307441
Wallowa Assembly of God,45.568575700000004,-117.52875750000001
St. Mark's Anglican Church,42.2283885,-121.77785490000001
Vale Christian Church,43.982463200000005,-117.2436708
St. Innocent of Irkutsk Orthodox Church,42.4215584,-123.15897930000001
Safe Harbor Christian,42.0369718,-124.245451
First Evangelical United Brethren Church,44.0506089,-123.1053449
St. Mary's Catholic Church,46.246817300000004,-123.9100784
Lighthouse Tabernacle,45.518952600000006,-122.982291
Calvary Chapel,44.539812500000004,-122.90502090000001
Methodist Church United,44.5272346,-122.9107984
City Gate Church,44.960829600000004,-124.01348600000001
Redemption House Ministries,44.3031878,-120.85178850000001
Kingdom Hall of Jehovah's Witnesses,43.1283053,-121.0478425
Camp Creek Church,44.0724153,-122.87724320000001
Heritage Christian Fellowship,42.3623453,-122.87902240000001
Creekside Community Church,45.2104993,-123.1948835
,42.3011112,-122.9258777
The River Center,44.518625500000006,-122.90394780000001
Riverside Church,44.2677593,-123.1719085
Gloria Dei Lutheran Church,42.3832454,-122.9156877
"Community Bible Church, Sonshine early learning center",42.3827829,-122.91408960000001
Seventh day Adventist church,42.3826143,-122.9148315
All Things Good,44.0504468,-122.99900380000001
Calvary Open Bible,44.056376300000004,-123.00929180000001
Calvary Open Bible,44.0563256,-123.01052940000001
Church of Scientology of Portland,45.520803,-122.6745453
,42.799689,-123.24966590000001
Ebbert Memorial United Methodist Church,44.049052,-123.0185431
Church of God,44.0495214,-123.00572760000001
OneLove Church,44.0906712,-123.06116480000001
Misión Bethel,44.057441600000004,-123.0191044
Valley Covenant Church,44.040326,-123.14740870000001
Alvadore Christian Church,44.127195900000004,-123.26885290000001
First Landmark Missionary Baptist,44.0429201,-122.969031
Crystal Springs Youth Camp,44.4726476,-120.34969400000001
Jubilee Fellowship,42.217354500000006,-121.76661100000001
Emmanuel Bible Church,44.9575552,-122.88630370000001
Holley church,44.354011400000005,-122.782542
First Baptist Church,44.052063100000005,-123.01000200000001
Centro Cristiano Familiar,44.052111000000004,-123.0092079
Cornelius United Methodist Church,45.518160800000004,-123.0589034
Cascade Vineyard Church,45.4149983,-122.79307840000001
Solid Life Center,45.516310000000004,-123.10624490000001
Community Church of Sandy,45.400285800000006,-122.2591383
Living Way Fellowship,45.389437900000004,-122.25827790000001
Sandy Assembly of God,45.396458200000005,-122.2539129
Jaya Hanuman Temple,45.535853700000004,-122.85410100000001
Safe Haven,44.044681100000005,-122.96477300000001
Restoration Fellowship,44.044775400000006,-122.96477320000001
Murphy Chapel,42.3472712,-123.3326095
Cross Roads Christians,44.593434200000004,-123.2619851
Beautiful Savior Evangelical Lutheran Church,44.594363300000005,-123.26670060000001
The Church of Jesus Christ of Latter-day Saints,44.572332700000004,-123.29794620000001
,44.5492623,-123.28917240000001
Corvallis Seventh-day Adventist Church,44.556414200000006,-123.286754
Shepherd of the Valley Lutheran Church,44.5945076,-123.26414860000001
The Church of Jesus Christ of Latter-day Saints,44.5943118,-123.2654464
Reedsport Church of God,43.692523400000006,-124.12156750000001
Harvest Baptist,42.301278,-122.88816010000001
Trinity Bible Church,42.2970478,-122.90630290000001
Creswell Sabbath Fellowship,43.9206322,-123.01705100000001
Mount View Baptist Temple,45.3593719,-122.7783612
Tualatin Spanish Church,45.359287300000005,-122.7780151
Bible Missionary Baptist Church,45.5223547,-122.5528192
Masjid Ibrahim Bethany Musalla,45.554304200000004,-122.83318700000001
The River Church,44.989128300000004,-122.99084950000001
Mission church,44.6338394,-121.13001960000001
,42.371856900000004,-122.92242780000001
The Church of Jesus Christ of Latter-day Saints,45.226907100000005,-123.2184495
,45.500575700000006,-122.865216
The Vedanta Retreat,45.711353200000005,-122.914979
Lighthouse Christian Church,46.061031,-123.91330780000001
Assembly of God,46.098769000000004,-123.0477151
The Church of Jesus Christ of Latter-day Saints,44.4143611,-118.93169460000001
,44.414575600000006,-118.93322880000001
Redeemer Lutheran Church,44.4153822,-118.94266940000001
Church of the Nazarene,44.416163100000006,-118.94436510000001
Refuge City Church,42.2136058,-121.7567197
Wapato Valley Church,45.4367876,-123.1400598
Holy Angels Anglican Church,45.4551413,-122.87230160000001
Lakeside Community Presbyterian Church,43.575795500000005,-124.1749669
,44.1747468,-122.1652756
Gateway Church,45.5939977,-121.16710010000001
Fellowship Church Downtown,44.9368787,-123.039016
Dasmesh Darbar Sikh Temple,44.899581700000006,-123.03708680000001
Verbatim Church,44.6310135,-123.0802871
The Venetian,44.637299600000006,-123.10729830000001
,44.6389403,-123.0888627
Blue Cliff Zen Center,44.0463819,-123.09808210000001
Burns SDA Church,43.588525000000004,-119.0568793
Seventh-day Adventist Church,42.180057500000004,-120.3456172
Cannon Beach Baptist Church,45.885360500000004,-123.9596563
Seventh Day Adventist Church,46.003367600000004,-123.91690030000001
Oregon Yedam Presbyterian Church,45.548067800000005,-122.8682438
Intown Church,45.5198842,-122.6918888
New Hope Life Center,44.3182434,-123.2997794
Gospel Outreach Reformational Church,45.5266316,-122.54722980000001
Voice of Hope,45.490307300000005,-122.55436710000001
Cornerstone Church,45.5106589,-122.41983090000001
Klamath Falls Gospel Mission,42.2160676,-121.76893500000001
Turning Point Church,45.426786400000005,-122.6021341
The Bible Church,45.426866100000005,-122.6021324
Korean Mission Evangelical Church of Oregon,45.505924900000004,-122.7705619
Iglesia de Cristo Mision Elim Oregon,45.5056862,-122.77026420000001
Monroe Church of Christ,44.315185500000005,-123.2988073
Philomath Community Church,44.540967800000004,-123.3660358
College United Methodist Church,44.5410136,-123.36999840000001
New Hope Center,44.5477749,-123.32315340000001
New Hope Missionary Baptist Church,44.085407200000006,-123.1976226
Chapman Church of God,45.821128300000005,-122.9779062
Adi Parashakti & Sai Educational Center,45.528601800000004,-122.873749
St. Stephen's Episcopal Church,44.632649400000005,-124.0564482
Lighthouse Vineyard Christian Fellowship,44.6334967,-124.05737180000001
Hub City Church,44.6369661,-123.1045995
Japanese Fellowship Church,45.4818123,-122.705303
First United Methodist Church,42.323448500000005,-122.8789567
Bellfountain Community Church,44.363199200000004,-123.35376000000001
Living hope church,42.356873900000004,-122.84708660000001
Thành Thât Cao Đài Portland,45.5046534,-122.50324730000001
Sunnyslope Christian Reformed Church,44.8905982,-123.0567056
The Redeemed Christian Church Of God,44.9204449,-123.01074980000001
Life Church Salem,44.9332167,-123.079452
West Hills Unitarian Universalist Fellowship,45.458101600000006,-122.7624495
Salem's House of Prayer,44.9414287,-123.0373435
Valley Springs Church,44.5876816,-123.2600807
United Pentecostal Church,44.5712994,-123.2715697
First Christian Church,44.564044300000006,-123.2650526
Lakeside Community Church,43.9122476,-122.8118675
Community of Faith Church,45.3442276,-122.65428840000001
Methodist Church,44.9962796,-120.21328000000001
Laurel Community Church,45.4183681,-122.9927255
Hillside Fellowship,44.3983639,-122.7493883
Optimization Clinic,42.456228700000004,-122.8132685
,44.5699988,-123.27328360000001
,45.834485,-119.3117675
,45.8342977,-119.30475320000001
,45.834460500000006,-119.30255190000001
,45.8389655,-119.3009186
,45.837047600000005,-119.30093090000001
Family Church - Ark Campus,43.127956000000005,-123.41169620000001
First Baptist,45.3593789,-120.7852447
Edgewater Christian,42.4316437,-123.2899301
Sequoia Sanctuary,42.2713405,-123.26308320000001
Westside Christian Church,43.214736900000005,-123.38392350000001
Seaside Calvary,45.9922933,-123.92145730000001
Counterculture Church,45.5192331,-122.68546330000001
Christ Reformation Church,45.5099728,-123.8647473
Masjid Abu-Bakr,45.5229063,-122.581287
Masjid Abu-Bakr,45.523112000000005,-122.5812142
Shepard’s House Ministries,44.067281,-121.30484270000001
Our Lady of La Vang Catholic Church,45.437566600000004,-122.56571640000001
Journey Church,44.026724400000006,-121.31512090000001
Ocean Unity Church,44.429226,-124.0596409
Compass,44.0387598,-121.3029015
Chabad Jewish Center of Hillsboro,45.5128694,-122.937161
Estacada Seventh-Day Adventist Church,45.2909042,-122.3354106
Holy Communion Church,44.0364072,-121.30626550000001
Calvary Chapel Community Church,45.4469779,-122.78632150000001
City's Edge Community Church,45.4468448,-122.78777280000001
The Church of Jesus Christ of Latter-day Saints,45.433975100000005,-122.34080660000001
Iglesia de Dios de Profesia Conociendo la Verdad,45.416473,-122.60403070000001
Idaho-Oregon Buddhist Temple,44.023065800000005,-116.9565359
Storyline Community,45.446916300000005,-122.62067250000001
,44.5570267,-123.30190080000001
Congregation Shir Tikvah,45.527634000000006,-122.64063780000001
Mid-Valley Baptist Church,44.576396100000004,-123.2748978
Winners Chapel International,45.4260565,-122.77842740000001
,44.0823362,-121.2962066
Ministerios El Amor Verdadero,45.7564116,-122.8798498
Beit Haverim,45.4236451,-122.6896985
East Salem Church,44.9415923,-122.94674230000001
Story Church,45.3021272,-122.76416300000001
Yaquina Bay Baptist Church,44.635514300000004,-124.0414013
Lebanon Flow Arts,44.5691325,-122.7587632
Williamson River Christian Fellowship,42.5522659,-121.9014465
Abu-Bakr As-Siddiq Islamic Center/Eugene Islamic Center (Mosque),44.049612700000004,-123.12103510000001
Masjid Lady Khadijah (Mosque),45.444853,-122.7949243
Alive Church,45.469142100000006,-122.70842940000001
Pioneer United Methodist Church,43.1757281,-124.1865985
Chosen Church,45.533551,-122.4347424
Gold Beach Apostolic Church,42.4071785,-124.42072440000001
The Church of Jesus Christ of Latter-day Saints,42.410943,-124.42089600000001
Masjid Towhid,45.531825500000004,-122.55433380000001
Boardmen Pentecostal,45.824469500000006,-119.686143
Portland Friends of the Dhamma,45.5127278,-122.64002420000001
First Baptist Church of Gresham,45.496966,-122.43401940000001
,45.4889561,-118.00374500000001
,45.5629623,-117.92091380000001
,45.5633685,-117.91651470000001
,45.477831800000004,-118.83615010000001
,45.5229724,-123.8893611
,45.501666,-119.8230673
,45.200343800000006,-123.9617365
,44.6217637,-121.1302979
,45.199468,-123.96079630000001
Saint Thomas Episcopal Church,44.07780956758802,-123.06808103150152
First Lutheran Church,45.86740394977051,-122.80301123779962
First Baptist Church,45.208249690875164,-123.19736761728434
United Church of Christ Congregational,45.600348681700176,-121.18517164494628
Suburban Christian Church,44.53868444439498,-123.31246251995617
Congregation Neveh Shalom,45.48347911338051,-122.70597638922119
Christian Church of Hillsboro,45.52582850158338,-122.9813343813851
Saint Anthony Catholic Church,45.51511224534853,-123.10345802393098
Forest Grove United Methodist Church,45.516651528997144,-123.10737607097602
Our Lady of Peace Retreat Center,45.4935729281606,-122.8509340048448
United Methodist Church,45.523431004912204,-122.97673901250566
West Portland United Methodist Church,45.45500766505858,-122.72576527398846
Rolling Hills Community Church,45.3735701588411,-122.71241854890896
Calvary Parkside,45.47842140548673,-122.81272272916654
Portland Central Church Assembly of God,45.47439121730664,-122.80609071009154
Beaverton Christian Church,45.47596792387019,-122.8183370485679
Southminster Presbyterian Church,45.46867219046248,-122.80312764753843
Canyon Creek Church,45.31816903041333,-122.75724740454604
Portland Metro Church,45.55934606028298,-122.65898320427289
HECSA Portland Balaji Temple,45.50726389605834,-122.74074378614468
St. Matthew's Anglican Church in North America,45.55311979311975,-122.54801649036807
The Parish of Saint Mark,45.530349495428666,-122.69489646274204
Saint Henry Catholic Church,45.49818571179034,-122.43578293810712
Greater Portland Baptist Church,45.512990059776456,-122.48000637255235
,45.47721298399052,-122.39769590190603
Trinity United Methodist Church,44.08978812944047,-123.13460381441172
Central Lutheran Church,44.039614644518146,-123.07580258660843
Peace Lutheran,44.04075231549969,-123.08157703705001
Westminster Presbyterian Church,45.536167743356366,-122.64899967037519
All Saints Parish,45.52358627440802,-122.98475256961052
GracePointe,45.44560690243705,-122.6187554893234
Rockwood United Methodist Church,45.51960370797639,-122.47968553765507
Lynchwood Christian Church,45.49483628331438,-122.48523568262075
Canby Foursquare Church,45.27941038747219,-122.66410049127153
Saint John the Apostle Catholic Church,45.3545672931917,-122.60746927961965
Holy Trinity Catholic Church,45.50729079403114,-122.81724458924292
Gethsemane Lutheran Church,45.51103377973276,-122.543787941883
Montavilla Baptist Church,45.5118560614612,-122.56876509741257
First United Methodist Church;Grace and Mercy Lutheran Church,45.84168833705603,-119.2891621554244
Klamath Lutheran Church,42.23112518547204,-121.77957490867836
Saint Paul's Episcopal Church,44.92668043814845,-123.04213895045042
First United Methodist Church,45.51753187389344,-122.69369029032389
First United Methodist Church,44.04449046001433,-123.09506321235214
Wesley United Methodist Church,44.07697484227287,-123.0778334714583
Salem First Church of the Nazarene,44.9480690239276,-123.01647147196212
Trinity Church,45.44164156235591,-122.48657405221446
Crow Applegate Church of the Nazarene,43.98462734405064,-123.32351826774405
North Umpqua Bible Fellowship,43.30384118603672,-123.14098136514528
,43.22961118360457,-123.37091678826943
First Presbyterian Church,42.32416073733864,-122.87513195253486
Holy Redeemer Catholic Church,43.40126185992108,-124.24373955769309
Grace Lutheran Church,44.57196251285242,-123.27610754401142
St. Mary Catholic Church,44.573214973625106,-123.27821485275858
Saint Barnabas Episcopal Church,45.47645366460039,-122.69972249605618
Peoples Church,44.985348376676946,-122.98053005515374
Salem First United Methodist Church,44.9386738071168,-123.03533895217512
Saint Joseph Catholic Church,44.9409803236855,-123.0316947265624
Saint Matthew Lutheran Church,45.49140936200634,-122.78341302616292
New Hope Foursquare Church,44.950118598313146,-122.96011586023944
First Baptist Church,45.518880873217064,-122.68447586001183
Temple Baptist Church,45.532663646370835,-122.65915551574487
Society Church,45.53630155,-122.62266980000001
The Well Community Church,45.53557781398536,-122.66442510324869
Holy Rosary Catholic Church and Priory,45.53312645602043,-122.66216905375164
Rosary Center & Confraternity,45.53274201213723,-122.66290581078722
Christian World Fellowship,44.886230148655784,-123.0587586368871
Saint Francis of Assisi Catholic Church,45.52056278996332,-122.6540978396345
Saint Patrick Catholic Church,44.84892717708856,-123.20349500204453
"First Church of Christ, Scientist, Portland",45.52670309054684,-122.64241327511644
Nichiren Buddhist Temple of Portland,45.516265600000004,-122.64503205
Portland Covenant Church,45.55269627230801,-122.66118732988573
Miao Fa Temple,45.51269897451037,-122.64809695319299
Immaculate Heart of Mary Catholic Church,45.54397694314544,-122.66623644821142
St. Philip the Deacon Episcopal Church,45.54168669919284,-122.66381238094264
Our Lady of Guadalupe Catholic Church,44.7220373397734,-123.91578417298777
Siletz Gospel Tabernacle,44.72269785312202,-123.914459454605
Calvary Baptist Church,45.487454896466424,-122.85807072504558
Tualatin Valley Community Church,45.51574711354546,-122.89471370905342
The Church of Jesus Christ of Latter-day Saints,45.41967064548694,-122.7310631129597
Lake Bible Church,45.4205659211442,-122.72405778063442
Our Lady of the Lake,45.419852827283364,-122.67266911366112
Portland Oregon Temple,45.42537975873755,-122.74226750218718
River West Church,45.42338544380979,-122.69949150510008
Imago Dei Community,45.5218457209803,-122.65116130183213
Saint John the Baptist Greek Orthodox Church,45.513476068981475,-122.82590970664376
Holy Redeemer Catholic Church,45.57040795670337,-122.66716760543076
Forest Grove Church of Christ,45.51732843106488,-123.10809164384465
Greater Gresham Baptist Church,45.50413397043261,-122.39311388498936
Mt. Olivet,45.48168611194054,-122.86044410213977
Montavilla United Methodist Church,45.520543255624425,-122.58088540109843
Emmanuel Presbyterian Church,45.386455094213765,-122.64005572051211
New Life Church,45.38821709529687,-122.64029772084616
Lake Oswego United Methodist Church,45.407481467852385,-122.68108729708038
Village Baptist Church,45.51629815069499,-122.81701072511412
Shepherd of the Valley Lutheran Church,45.535798299999996,-122.85673709999999
University Christian Center,44.56802034478002,-123.2745733214909
West Linn Lutheran Church,45.378413647590115,-122.63405384995363
Corvallis Foursquare Church,44.58129277683752,-123.27285570746359
Stone Tower Seventh Day Adventist Church,45.529670140286754,-122.6341694062183
Immanuel Christian Fellowship,45.52951952475973,-122.63481488456574
Holy Trinity Greek Orthodox Church,45.52687216857832,-122.63207169967518
Bridgetown Church,45.537171914909216,-122.64423842100636
Rose City Park Presbyterian Church,45.536726618687084,-122.61746417023538
Sunnyside Seventh-day Adventist Church,45.51222854220339,-122.55476058810694
Saint Anne's Chapel,45.39775421621029,-122.64964872772237
Macksburg Lutheran Church,45.213450339796346,-122.65690141684189
Calvary Mennonite Church,45.23096973646257,-122.72864767439724
Saint Rita Catholic Church,45.55586132291663,-122.55941884069453
Iglesia Pentecostes Cristo Te Llama,45.55123953172795,-122.580925156866
Sulamita Slavic Evangelical Church,45.54494918511877,-122.45125922817847
Saint Peter Catholic Church,45.48001399567104,-122.57383142179859
Lents Seventh-day Adventist Church,45.47951819728963,-122.57167136262856
Lents Baptist Church,45.479599349999994,-122.57264110000001
Life Community Church,44.62030030185585,-123.2445914004369
Grace Baptist Church,44.12287292211676,-123.13976930156771
Emmaus Lutheran Church,44.039921225546365,-123.11195754929008
Saint Anne Orthodox Church,44.6316126,-123.24040589999997
First Christian Church,45.51507684629792,-122.68275266685119
Nexus Church,45.47286980473069,-122.80666873293137
Albany Seventh-Day Adventist Church,44.613551869619435,-123.0677390259206
Alliance Bible Church,45.51184393855363,-122.93943769455696
Hillsboro Friends Church,45.52573615359762,-122.98034650478338
First Congregational Church,45.516404642586366,-122.68203192856711
Oak Hills Church,45.53994335245784,-122.83438591002974
Chapel of Christ the Teacher,45.571157095079975,-122.72642339864753
Saint Andrew's Presbyterian Church,45.488239250725535,-122.70978544578567
Victory Temple Church of God in Christ,45.53670375,-122.66274910000001
Bandon Christian Fellowship,43.10711225251667,-124.4286573825972
Portland Christian Center,45.481708419966644,-122.70530059398475
Liberation Street Church,45.52293352555406,-122.67269367383163
First Christian Church,45.00769848309822,-122.7831295845427
Sacred Heart Catholic Church,44.64332416833587,-124.05383769994762
Newport Christian Church,44.635460564850185,-124.04295893859313
Multnomah Presbyterian Church,45.47030990522411,-122.72386225038038
Grace Baptist Church,45.299811288901246,-122.95901658139424
Saint Michael's Episcopal Church,45.29970019330808,-122.96047588120301
Saint Rita Retreat Center,42.42442667012563,-123.01421605776937
Faith Baptist Church,44.968443567334276,-122.9605992520315
,44.883578569921866,-117.11506103199739
Saint Therese Catholic Church,44.8806852254841,-117.1139109919469
Hood View SDA Church,45.41880662034399,-122.38744637883872
Elgin Seventh-day Adventist Church,45.56527423593897,-117.92445278549404
Christ Memorial Church of God in Christ,45.5624236894215,-122.68344262365699
Applegate Christian Fellowship,42.23908210273815,-123.04005209075716
Portland Family Peace Fellowship,45.37451485,-122.62994125000002
Saint Pius X Catholic Church,45.52882850148403,-122.80445352852712
Tigard Foursquare Church,45.42054283047967,-122.7848876924087
Creswell Church of Christ,43.91246888577984,-123.02257379688868
First Baptist Church of Salem,44.94493190534387,-123.03693241632934
Our Lady of Perpetual Hope Catholic Church,43.80290516883342,-123.0471940507106
,44.05947852909242,-123.00938522884462
Saint Thomas Catholic Church,44.292163186927574,-121.18801902172405
Crossfire,44.05317010000002,-122.98759700000001
Crossfire,44.053180647581094,-122.98710094709759
United Pentecostal Church of Springfield,44.04759310976185,-123.00496930550163
Saint Patrick Catholic Church,45.53474985781141,-122.69106692487472
Saint André Bessette Catholic Church,45.52327065000001,-122.67675650000002
Saint Bartholomews Episcopal Church,45.49529288026308,-122.79264349930045
Spirit of Life Christian Center,42.41024165000001,-122.85823859999998
Second Coming Church,45.49634951108433,-122.6110912750201
Trail Christian Fellowship,42.576845476216675,-122.81891899227364
The Church of Jesus Christ of Latter-day Saints,45.54316356363514,-122.83024872897322
Hui Lin Temple,45.491939389755224,-122.59915990974123
Saint Paul Catholic Church,44.07541862895014,-123.05862490571202
Kingdom Hall of Jehovah's Witnesses,42.15377015197462,-123.62610676403122
Corbett Community Church,45.52759468222008,-122.30950606240191
Grace Bible Church,42.24479120601569,-122.7875805857943
Valley Bible Fellowship,42.23943985428794,-122.77498395695123
Joy Church,44.078911899999994,-123.04592754999997
Church of Christ,44.07351045,-123.06884330000001
Victory Christian Center,45.490451261164964,-122.58617948352564
Emerald Bible Fellowship,44.07879789786264,-123.08498964463395
Archangel Gabriel Orthodox Church,42.282465099999996,-122.81751504999998
Zion Evangelical Lutheran Church,44.57215365509858,-123.28188497996231
Trinity Baptist Church,44.048182308843145,-123.00954125452465
Trinity Episcopal Church,44.05571028049006,-121.31791971538905
First United Methodist Church,44.05553682951754,-121.31552031887536
Saint Francis of Assisi Catholic Church,44.05617783707746,-121.31164498742876
The Church of Jesus Christ of Latter-day Saints,44.613201746236605,-123.07157719165586
First Presbyterian Church,45.20903918950611,-123.19612631088386
,45.208708349214106,-123.19541112857358
McMinnville Cooperative Ministries,45.20905385222206,-123.1937291641066
Riverside Church of God,43.78788925862131,-123.07047248202721
Coburg United Methodist Church,44.14061121647506,-123.06773826469252
Countryside Christian Fellowship,44.140565303303674,-123.07169989091243
Your Bible Speaks Community Church,45.55691073936795,-122.60670017319819
Pendleton Faith Center,45.67355599066877,-118.78769281490972
First Presbyterian Church,43.206905174387714,-123.3457835167535
Saint Joseph Catholic Mission,42.315041198934516,-122.96594576065846
Trinity Episcopal Church,42.19570752956387,-122.71064816849481
Saint Juan Diego Catholic Church,45.56256966527834,-122.86209222412926
Salem Alliance Church,44.95194073655999,-123.02904232346818
"First Church of Christ, Scientist",44.93182704673184,-123.04136006360106
The Church of Jesus Christ of Latter-day Saints,45.867199573023484,-123.16950044094908
State Street Church of God,44.934803181781234,-123.01959586665882
Bend First Presbyterian Church,44.05250827346339,-121.29221483055414
Victory Baptist Church,44.06042014951289,-121.29003125804839
St Alban's,44.62450282176276,-123.09098721702242
,44.62395904891159,-123.08998372948247
,44.62384124782443,-123.09403362138818
The Salvation Army,45.67064672886031,-118.78451803541148
Bethany Baptist Church,45.552649819006206,-122.83212653803426
First Presbyterian Church,45.67113682589811,-118.78942094029954
First United Methodist Church,45.67150064944115,-118.78417743924446
Episcopal Church of the Redeemer,45.67238601393634,-118.78556501398752
Youngnak Presbyterian Church of Portland,45.523759474872904,-122.8557885134433
Life Change Church,45.52593100890073,-122.49573324809874
Hope Lutheran Church,42.2061067677565,-121.7232245046867
Wesley Foundation Campus Ministry,44.04619057240497,-123.07897256835894
Oregon Hillel,44.04816546630108,-123.08178279856467
,45.60064845766582,-121.18631806070243
"First Church of Christ, Scientist",45.59897633111527,-121.18464721352885
Garden Valley Church,43.24529721795173,-123.39584931256618
Church of Christ,43.1975990936174,-123.36101558311985
Kingdom Hall of Jehovah's Witnesses,43.20897383097609,-123.3891654181848
Templo Betel Asamblea de Dios,45.59914351224586,-121.18760171411554
Melrose Comunity Church,43.246660284441944,-123.46259597526436
,43.24621702446263,-123.46263893950076
Hope Church,44.63227439583776,-123.07122007220478
Albany Mennonite Church,44.659214533059654,-123.0591397795651
Saint Mary Magdalene Catholic Church,45.54544326345507,-122.64161706591622
Saint Luke Lutheran Church,45.47521022593336,-122.72488946315761
Lebanon First Assembly of God,44.535839166599146,-122.91682400902761
Oregon Latvian Evangelical Lutheran Church,45.48369368635535,-122.70723287159859
Chabad,45.4762462059718,-122.70114575269098
The Church of Jesus Christ of Latter-day Saints,44.80664988276218,-122.80725901140949
Foothills Church,44.81073387927122,-122.78458536214643
Santiam Chapel,44.7767268077651,-122.61588806017014
The Church of Jesus Christ of Latter-day Saints,44.745231613702984,-122.41593635133076
Greater Portland Bible Church,45.47331578357614,-122.70022322234651
Congregation Kesser Israel,45.47586037676514,-122.70606945287747
Corvallis Gospel Hall,44.545004173159406,-123.26316063705738
Southside Community Church,44.54584007536904,-123.26354832700501
All Saints Episcopal Church,45.47957944668903,-122.6209925282329
Village Grace,45.4739805411774,-122.7069370135152
The Grotto,45.55320090383517,-122.57087117561079
West Hills Christian Church,45.4680178826049,-122.71661022734281
Saint Clare Catholic Church,45.463180140493556,-122.69701127134229
Missio Community,45.458828598179956,-122.71147459663081
Saint Andrew Lutheran Church,45.51371776528801,-122.80461004394223
Holy Trinity Catholic Church,43.897494486355306,-121.41979312253055
PDX Church,45.471553456552265,-122.67997361481187
"First Church of Christ, Scientist",44.77734972740326,-117.83357262526042
First Lutheran Church,44.77503361331565,-117.83290906879783
Kingdom Hall of Jehovah's Witnesses,44.766346179607375,-117.8234676993197
Baker City Christian Church,44.76561349490619,-117.83756230241056
Agape Christian Center,44.764996674130565,-117.83587449252703
Saint Francis de Sales Cathedral,44.77945902330808,-117.83120799027674
Calvary Baptist Church,44.778413488445175,-117.83357902500008
Blue Mountain Baptist Church,44.78096668823677,-117.84146147029746
The Church of Jesus Christ of Latter-day Saints,44.7956297175471,-117.83827714921672
Baker City Church of the Nazarene,44.79612983083453,-117.82038081932805
Elkhorn Baptist Church,44.79092481586076,-117.81368241348073
Harvest Church,44.79380458088643,-117.81362449491662
OSU Newman Center,44.56858184076012,-123.27712732677733
Trinity Episcopal Cathedral,45.524504358273404,-122.69088167094164
The Church of Jesus Christ of Latter-day Saints,45.523440723710614,-122.95000513750793
New Life Church,45.51925558797459,-122.94707124343718
Valley Hope Community Church of God,45.52169509367138,-122.96010048446045
Saint Matthews Episcopal Church,44.12281970255702,-123.14132457739751
Christian Meeting Place,45.50363891555851,-122.79914344778189
First Baptist Church,44.977263589997136,-124.01370498042748
Lincoln City Nazarene Church,44.9779830213741,-124.0123955954902
Rogue United Methodist,42.57792142248843,-122.81796784465766
The River Center,44.5555395873207,-123.29475587221137
Corvallis Korean Church,44.58024750243795,-123.27045126251224
Grant Avenue Baptist Church,44.579899813729945,-123.2706183178979
Luther House,44.5696293850495,-123.27739422205788
Saint Antonious,45.46410896606443,-122.65140458507302
Valley Church,44.928707941393675,-123.04216505843436
Rogue River Seventh Day Adventist,42.417709695907924,-123.15583985393756
First United Methodist Church,44.566911511110526,-123.26964520845607
Saint Thomas More Catholic Church,45.50199158489496,-122.71407760526724
The Journey Church,45.41992192510037,-122.46616109377592
Emmanuel Community Church,45.42601039747614,-122.48624482621028
Kingdom Hall of Jehovah's Witnesses,45.426059309896736,-122.48767671075551
Tabernacle,45.490310323968636,-122.67854589009096
Ageny Longhouse,44.75570666605083,-121.27177098525907
Grace Church Portland,45.51547276360241,-122.68726939231345
Hope Korean Presbyterian Church,45.47745560128042,-122.67416650439051
Kingdom Hall of Jehovah's Witnesses,45.47705589524476,-122.67611977864004
First Unitarian Church,45.51818329499476,-122.68579523242877
Hillsboro Nazarene Church,45.53489004555915,-122.95975909090738
First Presbyterian Church,45.52113501244659,-122.68429968038429
First Baptist Church,45.524173707145266,-122.98836751018963
Hillsboro Seventh-day Adventist Church,45.52855933514227,-122.98483596917313
Calvary Lutheran Church,45.53165855902987,-122.9807371424093
Old Town Chruch,45.51290751281761,-123.10730806269424
The Church of Jesus Christ of Latter-day Saints,45.52799082956813,-123.11979760242953
Deschutes Christian Fellowship,44.10864588525937,-121.31336413811538
Emanuel Lutheran Church,45.51866369421704,-123.05780753796942
Saint Bedes Episcopal Church,45.51405734089412,-123.10266775098978
Forest Grove United Church of Christ,45.52055288185463,-123.11151278213661
Abundant Life Community Church,45.597088120126976,-122.99657157500049
North Plains Christian Church,45.59784685934782,-122.9986972047654
Saint Matthew Catholic Church,45.518511663290475,-122.98672390522115
,45.516228375523774,-123.0453175696603
The Church of Jesus Christ of Latter-day Saints,45.54083987143377,-123.1231309573132
Old Scotch Church,45.57275178306603,-122.99427740861707
Zion Lutheran Church,45.549286315896055,-122.99417175751172
Evergreen Christian Center,45.551958957508866,-122.99457703815699
Saint Gabriels Episcopal Church,45.5554804283948,-122.85759272541524
Rock Creek Church,45.552284306104774,-122.8667217016561
The Church of Jesus Christ of Latter-day Saints,45.558409267925725,-122.87399333923798
The Church of Jesus Christ of Latter-day Saints,45.526220457621456,-122.85548770460643
Beaverton Grace Bible Church,45.52682765832765,-122.8621176221521
Remedy City Church,45.53425747394803,-122.84397245556005
Christ United Methodist Church of Cedar Mill,45.52726746821723,-122.80877361283048
Kingdom Hall,45.52916184145554,-122.80752703806834
Prince of Peace,45.53094387817586,-122.8231043509516
Oregon City Bible Chapel,45.307371038769666,-122.56827411896731
The Church of Jesus Christ of Latter-day Saints,45.25262449259193,-122.69595391993883
Bethany Evangelical Free Church,45.25984948275413,-122.6897300358711
,45.257586966115674,-122.68794620707439
Saint Aloysius Catholic Church,45.291457074345054,-122.33592314076948
Kingdom Hall of Jehovah's Witnesses,45.30351124273224,-122.33802882438442
The Church of Jesus Christ of Latter-day Saints,45.302423594738556,-122.33785260735135
Estacada Assembly of God Church,45.29343750069445,-122.33680446285211
Clackamas Valley Baptist Church,45.31068519001352,-122.34182407579497
Bright Way Zen,45.51946130693152,-122.80116390496615
West Valley Community Church,45.52948870472128,-122.90114355933638
Unitarian Universalist Community Church of Washington County,45.529033332552096,-122.91022845565567
Hillsboro Jehova North,45.562356230313675,-122.92799788658694
Cedar Hills United Church of Christ,45.50815126129501,-122.7964665172183
Grace Baptist Church,45.52084742434149,-122.58437972079889
Cedar Hills Baptist Church,45.50192767947897,-122.78927597896624
Lower Highland Bible Church and Sunday School,45.25340876851874,-122.45928911159469
Ohana Christian Fellowship of Seventh-day Adventists,45.280506894455314,-122.66668582865871
Canby Chapel Church of the Nazerene,45.27839791488316,-122.66558528632879
First United Methodist Church of Beaverton,45.48446223365028,-122.80612097501549
Ananda,45.48479441330607,-122.80685790759242
Fifth Street Church of Christ,45.4829875122973,-122.79795650834255
"First Church of Christ, Scientist",45.48046671595956,-122.80300942254644
Pilgrim Lutheran Church,45.47913193222136,-122.80506999286906
Eden Presbyterian Church,45.511016014018765,-122.86646758920593
Kingdom Hall of Jehovahs Witnesses,45.500572320271374,-122.85908551934871
Tu Viện Ấn Quang,45.50043110220026,-122.86496157789276
Horizon Community Church,45.374299476111766,-122.75323297797199
Wilsonville United Methodist Church,45.30379153448785,-122.75250585896583
Rock Creek Christian Center,45.560073638132266,-122.89702941323353
Holy Trinity Old Catholic Church,45.26432563089095,-122.69325376497986
Canby Alliance Church,45.26932372733376,-122.69261044034803
Canby Christian Church,45.26520739958601,-122.695269154128
Canby United Methodist Church,45.27491257212679,-122.69642941012428
First Baptist Church of Canby,45.27833535502536,-122.68738426986651
Immanuel Lutheran Church,45.39739035108713,-122.25290978469316
Saint Michael the Archangel,45.39207690832025,-122.24834393132211
The Church of Jesus Christ of Latter-day Saints,45.358101676248076,-122.85423012190893
Saint Elizabeth of Hungary Catholic Church,45.49371372784694,-122.68347382154403
City Gate Church,45.53058122265396,-122.97851651400187
Kingdom Hall of Jehovahs Witnesses,45.5201916686121,-122.94160647540814
Orenco Presbyterian Church,45.52348014061648,-122.91544161323414
Harvest Community Church,45.524240846463805,-122.89524673647303
Central Presbyterian Church,44.043590578005784,-123.08448563208971
Saint Anselm of Canterbury - Episcopal Campus Ministry,44.5694539707127,-123.28021343972883
Saint John Fisher Catholic Church,45.474552909462574,-122.72500603997547
Cascade Locks Bible Fellowship,45.674166850000006,-121.87795100000002
Bilal Masjid,45.4901294100642,-122.84267721454049
Kingdom Hall of Jehovah's Witnesses,44.55399795183949,-123.29011555937603
Salem First Presbyterian Church,44.940185694561656,-123.03204231422568
Hillcrest Bible Church,45.483859248429894,-122.7265509268512
Vermont Hills United Methodist Church,45.48043806887932,-122.73400335227288
,45.68626432515849,-121.5255330153993
,45.692061704744475,-121.52202233823088
Saint Agatha Catholic Church,45.465938681929195,-122.65145687092236
If the Broom Fits,45.42985600000001,-122.76764745000001
,44.109258557380464,-123.13490477277148
Neighborhood Assembly of God,44.10407273998199,-123.1477011819946
,44.11128210669067,-123.13605274880179
Westside Community Church,45.47538462416975,-122.86607880818033
Our Redeemer Lutheran Church,45.43075574671012,-122.8150540234661
Saint Andrew Catholic Church,45.55888894513041,-122.65698207793885
Saint Michael the Archangel Catholic Church,45.511833080585156,-122.68067179736822
Portland Community Church,45.46795069926854,-122.77409656833709
Portland Christadelphians,45.45503137806471,-122.82484483710014
Trinity Evangelical Church,45.44128977021652,-122.79949587299753
Southwest Hills Baptist Church,45.45433179051906,-122.81464155957677
The Church of Jesus Christ of Latter-day Saints,45.45827411244955,-122.83302248841291
Antioch Christian Fellowship,45.44947702471076,-122.7120310356748
The Porltand Rizwan Mosque,45.453358064462485,-122.71313478907118
Murray Hills Christian Church,45.44697814854684,-122.83091993942072
The Church of Jesus Christ of Latter-day Saints,45.51376387582889,-122.88756323612063
The Church of Jesus Christ of Latter-day Saints,43.39655997600543,-123.29075470947154
Gladstone Church of the Nazarene,45.38867012703061,-122.61998803998577
Jennings Lodge Community Church,45.39033472455873,-122.61545782854924
Spirit of Life Lutheran Church,45.381399293707005,-122.59929180367998
Gladstone Christian Church,45.3811527345363,-122.5906926322121
Park Place Church,45.369791909587214,-122.58059710716859
Sellwood Baptist Church,45.464733901391945,-122.65468243962125
Hillside Church,45.39044643867655,-122.59693234498599
Tri City Baptist Temple of Milwaukie,45.39198066993372,-122.58415904580683
The Church of Jesus Christ of Latter-day Saints,45.390880859297894,-122.58324476887798
St. Stephen's Episcopal Church,44.77866919271435,-117.8313237639483
First Presbyterian Church,44.7768621603658,-117.83491764438052
West Hills Friends Church,45.47108996386049,-122.73102261447667
Saint Helen Catholic Church,44.21986447651015,-123.21493372293683
Tri County Worship Center,44.22310373092876,-123.20779663614158
Eugene Japanese Baptist Church,44.10801658756591,-123.13203704877131
Immovable Foundation Church,45.43589009918362,-122.62214679122857
Milwaukie Presbyterian Church,45.439229100776195,-122.63721046837532
Plymouth Bretheren Christian Church,45.4220446563312,-122.62790115701918
Faith On Hill Church,45.41977819661956,-122.62539608732155
Milwaukie Covenant Church,45.43453909123952,-122.60043380977703
Good Roots Community Church,45.421824245167784,-122.64391260419733
Hope Community Church,45.41906704887896,-122.71192026539
Soka Gakkai International USA - Oregon Buddhist Center,45.398743213720515,-122.72378872984832
Triumphant King Lutheran Church,45.40157799561081,-122.72445120764058
Our Savior's Lutheran Church,45.4116879542005,-122.72245847540675
Chinese Faith Baptist Church,45.40436813751672,-122.69247466018058
The Church of Jesus Christ of Latter-day Saints,45.396371999827934,-122.69572011078071
The Church of Jesus Christ of Latter-day Saints,45.36790982511236,-122.63945145999055
Willamette Christian Church,45.36424575537098,-122.64981293123233
Oak Grove United Methodist Church,45.41677079535688,-122.63952533910862
Grace United Reformed Church,45.40644792107451,-122.63353577648768
Ebenezer Church,45.40884472593534,-122.62793030521128
Portland Korean United Methodist Church,45.39015782187821,-122.73268159825427
Oak Hills Presbyterian Church,45.41308646468777,-122.61110377065903
Kingdom Hall of Jehovah’s Witnesses,45.39673329000813,-122.61023043329
Antelope Community Church,44.91121391195046,-120.72199469313124
The Source,45.3816028226485,-122.58725140591584
Oregon City Christian,45.335477236157296,-122.62218302140295
Oregon City United Methodist Church,45.33300370922734,-122.62551152182373
Living Word Church,45.358320063711105,-122.60396294407003
Victorious Faith Family Church,45.35787235116191,-122.60524335720064
First Baptist Church of Oregon City,45.357341377784664,-122.60316047748725
Saint Paul's Episcopal Church,45.35749389112757,-122.60348518966809
Zion Lutheran Church,45.35585263422627,-122.60251946798702
New Life Church,45.36360195571939,-122.61450988396452
Stafford Baptist Church,45.351745290935554,-122.72295205813988
Resurrection Catholic Church,45.367415489403285,-122.70648907426977
Willamette United Methodist Church,45.343374536203335,-122.65693898687304
,45.31893329095958,-122.64289378769178
Westside Church of Christ,45.4798654068232,-122.81847561262563
Beaverton Baha’i Center,45.48053395589792,-122.82649593314143
Imam Mahdi Center,45.469599981338455,-122.80353825113656
Kingdom Hall of Jehovahs Witnesses,45.464783238105305,-122.8033346390934
Evergreen Presbyterian Church,45.467169856239124,-122.80439668746183
Spirit of Grace,45.466409423488294,-122.77636176730567
The Church of Jesus Christ of Latter-day Saints,45.50716130169258,-122.9254295522583
Ascension Presbyterian Church,45.51771460101412,-122.97079735862383
Westside Bible Fellowship,45.517157001345346,-122.9750216582193
Kingdom Hall of Jehovahs Witnesses,45.35020766557224,-122.6628980969754
Trinity Lutheran Church,45.5035190221991,-122.96248962049337
Tualatin Congregation of the Jehovah's Witnesses,45.403976636941266,-122.77465667538212
Apostolic Lutheran Church,45.39080378610223,-122.79660034256236
Boones Ferry Community Church,45.37071464281021,-122.77066033688324
Living Savior Lutheran Church,45.37474687270742,-122.76676244569681
Tualatin Presbyterian Church,45.368316238542874,-122.77196110431521
Tualatin United Methodist Church,45.37395242913794,-122.75982903703483
Crospoint SDA Church,45.4966303503633,-122.9234527025805
Calvary Chapel Worship Center,45.496214118998815,-122.91379273208103
Sherwood New Life Church,45.35852056269763,-122.83769083427991
EPIC House,45.35809035879611,-122.84352920742862
Sherwood United Methodist Church,45.35869281924189,-122.84395825992574
Christ Community Church,45.3596207740594,-122.77698285475205
Tualatin Seventh Day Adventist Church,45.35930389365721,-122.77813506873127
The Church of Jesus Christ of Latter-day Saints,45.35867870786903,-122.77878074388474
Reedville Presbyterian Church,45.499680581269125,-122.89221456758236
The Church of Jesus Christ of Latter-day Saints,45.48214905646029,-122.89442179841596
Aloha United Methodist Church,45.503462368782074,-122.87988322156279
Palace of Praise United Pentecostal Church,45.47081784807663,-122.88105565948585
La Casa De El Rey Jesús Oregon,45.47014095614407,-122.88462185231646
Cross Creek Bible Church,45.467966732712405,-122.89127527462973
Tigard Covenant Church,45.409988329726694,-122.79284618314956
Rise Church,45.41506509138658,-122.78439416279156
The Church of Jesus Christ of Latter-day Saints,45.40806394051224,-122.77814220757661
Southwest Church of Christ,45.40499890717581,-122.77655483890598
Hall Boulevard Baptist Church,45.41746263452293,-122.7665518723214
Tigard Friends Community Church,45.40572050295616,-122.76391961227863
Northwest Christian Church - Tigard Campus,45.42310854304095,-122.76627618615495
United Mehodist Church of Tigard,45.42571519272022,-122.77703728814579
The Church of Jesus Christ of Latter-day Saints,45.439526572866875,-122.79081813899361
BAPS Shri Swaminarayan Mandir,45.43677101786174,-122.79396675721966
Saint James Episcopal Church,45.41453951271862,-122.79574226413322
Gaarde Christian School,45.41921821360279,-122.79325500673433
Tuality Community of Christ,45.41973324753865,-122.7875229250621
"Tigard First Church of Christ, Scientist",45.415595595208835,-122.79302640329603
The Church of Jesus Christ of Latter-day Saints,45.54101376122329,-122.97879757754066
Islamic Center of Portland,45.45082247426742,-122.72191769018178
Sherwood Community Friends Church,45.35118528560813,-122.84050703015151
,43.67055140156254,-121.50725534670822
Crossridge Church,45.349044000664605,-122.8355452708673
The Church of Jesus Christ of Latter-day Saints,42.21468807455704,-120.36181886662258
Saint Paul Lutheran Church,45.37088722821542,-122.85623542328446
Countryside Community Church,45.35247473859104,-122.87098418051475
Tualatin Hills Christian Church,45.35307787497647,-122.77400062757225
The Church of Jesus Christ of Latter-day Saints,45.30760493643222,-122.75902347559025
Community of Hope,45.31875154859322,-122.74419780700015
Meridian United Church of Christ,45.31710897087087,-122.74606781747428
Valley Christian Church,45.29866576363148,-122.7917502309066
Saint Francis of Assisi,45.282691498509905,-122.7674361822878
Saint Cyril Catholic Church,45.297527427050454,-122.7716227214102
Kingdom Hall of Jehovah's Witnesses,45.43560203288105,-122.69878822487304
Hughes Memorial United Methodist Church,45.551030451766096,-122.66438929491095
Community Church of God,45.554435011849534,-122.66349787491127
Grace City Portland,45.5531254,-122.66290295000003
Life Change Church,45.54929253727487,-122.6674049799759
The Church of Jesus Christ of Latter-day Saints,45.5823497146258,-122.72699597045022
Portsmouth Trinity Lutheran Church,45.579243057876916,-122.72686670200895
New Life Community Church of God in Christ,45.58739395,-122.73952305000002
Messiah Finnish Lutheran Church,45.58899825557131,-122.75173364529702
Allen Temple Christian Methodist Episcopal Church,45.55436806861976,-122.65737706517618
New Freedom Assembly Church of God in Christ,45.549275486140864,-122.65591524721802
,45.548436209881146,-122.65691743986324
Full Gospel Temple of Prayer Church,45.553467500000004,-122.6601716
Episcopal Church,44.982833193237155,-124.0060839100317
Immanuel Outreach Center,46.169647660175364,-123.57086199688725
Bethesda Christian Church,45.561887685856604,-122.66827686534664
The Church of Jesus Christ of Latter-day Saints,44.02251408542026,-116.98184067843258
Saint Stanislaus Polish Catholic Church,45.551019566623225,-122.68059278152671
Fellowship Missionary Baptist Church,45.55238325855829,-122.67803797900226
House of Prayer for All Nations,45.55349431249778,-122.67415365813163
Stone Creek Christian Church,45.28935340649977,-122.56603194891872
,45.29793646920718,-122.56355748239852
The Church of Jesus Christ of Latter-day Saints,45.30897044993292,-122.55206625573865
Assembly of God Church,45.91760320796189,-119.33937951944523
Trinity Lutheran Church,45.3082430143588,-122.53799242734097
Hopewell Church,45.180504731462456,-122.76359252809495
North Park Community Church,44.06897810601171,-123.05658398171953
Saint James Catholic Church,45.15355131983155,-122.5718215407967
Saint Mary's Cathedral of the Immaculate Conception,45.523990875367126,-122.68887836181675
Christian Church of St. Helens,45.860065358649955,-122.80980856278657
Havurah Shalom,45.52904550801728,-122.68976805229417
Sandy Foursquare Church,45.389394710989464,-122.25810862636729
First Immanuel Lutheran Church,45.52765104744334,-122.69011792449447
Grant Park Church,45.54243398886494,-122.62936208156077
Bethel Baptist Church,45.59562421474211,-122.7431715151412
The Church of Jesus Christ of Latter-day Saints,45.40540914097412,-122.27418872036583
,43.24618104479694,-123.46234930386532
Presbyterian Church of Laurelhurst,45.529569486793235,-122.63114020028881
Grace Christian Fellowship Church,45.59721626615553,-122.73746822666875
St. Johns All Nations Church of God in Christ,45.59447265328515,-122.74011755342498
Rivergate Community Church,45.57980315805899,-122.71588580740477
Holy Cross Church,45.581074319450614,-122.72218956048002
Saint Andrew & All Souls,45.582461731259926,-122.72178430996091
University Park United Methodist Church,45.580384531867246,-122.71757582735134
Life Fellowship Church,45.57739941205468,-122.70751022659205
University Park Baptist Church,45.57772921941688,-122.71027974619484
Peninsula Baptist Church,45.57733745599631,-122.69457427108003
Woodlawn Methodist Church,45.57205530427843,-122.65050997828918
Faith Tabernacle Church of Portland,45.57353244758266,-122.64275293851426
Power House Church of God in Christ,45.563892949999996,-122.65789995000002
Heart of Wisdom Zen Temple,45.56911950312723,-122.6551149223172
Piedmont Presbyterian Church,45.564867129079616,-122.66548872500208
Northminster Presbyterian Church,45.570201839951665,-122.6962380580364
Kingdom Hall of Jehovah's Witnesses,45.571667441224676,-122.70074059750118
Saint Irene Byzantine Catholic Parish,45.55667697482092,-122.68082163209742
Walker Temple Church of God in Christ,45.55939360801117,-122.67733155093244
Church of Christ of Piedmont,45.56173774470599,-122.67370650345843
Emmanuel Temple Full Gospel Pentecostal Church,45.560801761482004,-122.6776319615798
Cornerstone Community Church of God in Christ,45.56250661210748,-122.64247912572799
The Church of Jesus Christ of Latter-day Saints,45.556382860487496,-122.62501668961606
Emmanuel Church of God in Christ United,45.55777012492088,-122.63459938483301
Wilshire United Methodist Church,45.5520541892791,-122.62311870305292
Bethany Lutheran Church,45.55406883419952,-122.6252070165363
Fremont United Methodist Church,45.548015017593144,-122.63865960313085
Westside United Methodist Church,45.512868317908925,-122.81503881310978
Northeast Community Fellowship Foursquare Church,45.54360481495241,-122.65883626810421
Greater Mount Gillard Missionary Baptist Church,45.544021650859165,-122.66392769555729
West Hills Baptist Church,45.46779864504628,-122.74347461115138
The Church of Jesus Christ of Latter-day Saints,45.46661558897764,-122.74434852386744
Trinity United Methodist Church,45.48509961691472,-122.62226897763436
Holy Family Catholic Church,45.46883219053362,-122.62289410243737
Holy Trinity Lutheran Church,45.47074922041027,-122.62226269808312
World Mission Society Church of God,45.447559075095604,-122.62176545618404
Waverly United Church of Christ,45.50171439633091,-122.63131673126266
Kenilworth Presbyterian Church,45.49361954602145,-122.62946411552772
Oregon Buddhist Temple,45.49573025,-122.62884100000001
Congregation Shaarie Torah,45.529398246742616,-122.70207626744848
"""I AM"" Sanctuary",45.508207649999996,-122.6518714
Buddhist Henjyoji Temple,45.50365871990939,-122.65341578528772
Foundation for the Preservation of the Mahayana Tradition,45.51104742549734,-122.65441868040955
Oregon Meditation Center,45.532260559939026,-122.62248522125996
Rose Church,45.521715771590046,-122.63177882590301
Red Sea,45.5925460041157,-122.75497330973852
Abundant Life Church,45.595975744364964,-122.76109695775978
Portland Buddhist Priory Incorporated,45.496195799999995,-122.65324224999996
Reedwood Friends Church,45.48529147751361,-122.63587971494579
Christ Apostolic Church,45.343452556393466,-122.59453125496644
,43.3884958993453,-123.32511286124692
Grace Romanian Christian Church,45.545963165371,-122.79092229151227
Crossroads Church of Christ,45.540416913647434,-122.55881244840775
Portland Hmong Alliance Church,45.56375444289434,-122.6012120219366
Parkrose Deliverance Tabernacle,45.56718089182018,-122.60360460273576
Grace Presbyterian Church,45.555677036781134,-122.60010931756028
Metropolitan Community Church of Portland,45.55804709836312,-122.58847868954012
Redemption Church,45.55573541836844,-122.59424007985237
Calvary Presbyterian Church,45.5485642515138,-122.58988157283694
Church of the Good Shepherd,45.556352090303996,-122.57338522434503
First Orthodox Presbyterian Church,45.54839160239486,-122.57779891474908
Parkrose Christian Church,45.55592827707568,-122.54279106537169
Holy Nativity of the Theotokos Orthodox Church,45.55596234980106,-122.5543974443192
The Groves Church,45.51550591791959,-122.62775749017227
Epworth United Methodist Church,45.513045750255095,-122.63741290425823
Door of Hope,45.51481196061983,-122.63205243702028
Wat Buddhatham-Aram,45.5544203906123,-122.5250107990817
Chùa Nam-Quang,45.54800792165173,-122.51072876049754
Ascension Lutheran Church,45.51215352364547,-122.47514980034856
Saint David of Wales,45.50818382279555,-122.63730837662621
Grace Bible Fellowship Church,45.54416406224457,-122.53522421998602
Parkrose Community Church of Christ,45.534221083579105,-122.53401555354677
Saint Therese Catholic Church,45.53125783403814,-122.52662318998817
Portland Vancouver Korean Seventh Day Adventist Church,45.53759239852937,-122.53200069495524
Slavic Evangelical Church,45.53761408224621,-122.51884955851767
Church of Christians of 7th Day,45.54586509679462,-122.55541488947988
Church of God Seventh Day,45.53917382964639,-122.54818929823146
Woodland Park Chapel,45.53652072649634,-122.55767904139294
Woodland Park Baptst Church,45.53378881086321,-122.54488982790036
Grace Foursquare Church,45.538583779100186,-122.57865604090618
Grace Lutheran Church,45.547873545881735,-122.58454482597489
Oregon City Evangelical Church,45.34050485758641,-122.6058623608019
Grace and Truth Pentecostal Church,45.51960090000001,-122.64323685000002
Hillcrest Missionary Baptist Church,45.33819405241417,-122.61387216855026
First Evangelical Presbyterian Church,45.337129069787146,-122.60340028919795
Saint Sharbel Maronite Catholic Church,45.509832519666034,-122.64906067203883
Chinese Baptist Church,45.50921609678319,-122.64968478105217
Zion Lutheran Church,45.51979195428378,-122.69208519520063
Prince of Life Lutheran Church,45.32050984431441,-122.58199428081458
Living Hope Church,45.320354913320415,-122.59354076875532
Oregon Trail Free Will Baptist Church,45.31131722409109,-122.56709354113643
Saint Rose of Lima Catholic Church,45.542586002223764,-122.60794520686186
Saint Michael and All Angels Church,45.53541678569596,-122.61858735529896
Unity Church of Beaverton,45.483461661904094,-122.8075539871335
Father's House,45.52563992185905,-122.61543350803375
First Covenant Church,45.52345011729621,-122.6165141803157
Unity Spiritual Center of Portland,45.51949789635935,-122.61538196167815
Betezda Romanian Pentecostal Church,45.51999639556274,-122.61462485778632
Portland Slavic Evangelical Baptist Church,45.5273820877076,-122.58423678610484
Bridgeport United Church of Christ,45.52760476753414,-122.58488814628612
Rose City Nazarene Church,45.5244461807347,-122.58179359254102
Self Realization Fellowship,45.52542041664087,-122.5811614079808
Living God Church,45.52623451975672,-122.58818794207056
Eastside Church of Christ,45.52606052648608,-122.57060673466378
Saint Cecilia Catholic Church,45.48288050234081,-122.80247887113143
Mountain Park Church,45.433854866839425,-122.7154840300231
Saint Marys Romanian Orthodox Church,45.51941666662317,-122.52459874116265
St. John the Evangelist Episcopal Church,45.44312507739735,-122.64043669328184
Bridge City Community Church,45.446275146170876,-122.63456341225037
Parklane Christian Reformed Church,45.51412379816059,-122.4985800370607
Smith Memorial Presbyterian Church,45.54088574349477,-122.43296689905374
Mount Olivet Baptist Church,45.58479835310328,-122.70859728992146
University Park Seventh Day Adventist Church,45.58804832880565,-122.70832342119952
Harvest Christian Church,45.53826184712146,-122.39419813028681
Kwan Yin Temple,45.526720916366926,-122.49268679004574
Eastrose Fellowship,45.53134489316215,-122.47793209922044
Unity Gresham,45.52672895532116,-122.47966161999739
Kingdom Hall of Jehovahs Witnesses,45.52607750686543,-122.48489125611677
,45.59268902459826,-122.72899311676787
Betel Romanian Apostolic Church,45.52693384128775,-122.47350884433072
Apostolic Worship Center,45.52678594425014,-122.47122419173651
The Church at Rockwood,45.52584991649533,-122.46081483083191
Anthem Church,45.533380963100484,-122.4347148957072
The Church of Jesus Christ of Latter-day Saints,45.51963597500601,-122.42784756256886
East County Church of Christ,45.519916842968875,-122.41078915832327
American Filipino Christian Church,45.51885977829876,-122.51993314538093
Kingdom Hall of Jehovahs Witnesses,45.518017174911094,-122.52195551643167
Eastside Free Methodist Church,45.51780241033429,-122.52021985555078
New Thought Center for Spiritual Living,45.422648184078604,-122.67587044950447
Savage Memorial Presbyterian Church,45.51052849556585,-122.52071286530185
Lake Oswego United Church of Christ,45.42367062186443,-122.68980304875025
Eastgate Bible Chapel,45.51869580161919,-122.54569367943634
Mill Park Baptist Church,45.51107477153668,-122.54232995113095
Chinese Free Methodist Church of Portland,45.516689529854524,-122.57689556232475
Ascension Catholic Church,45.51653777539016,-122.58565010686118
Mount Carmel Lutheran Church,45.453359201391905,-122.68423651407949
Slavic Church Emmanuel,45.508362735464445,-122.58046248547551
Mt. Tabor Seventh-day Adventist Church,45.51578091452629,-122.60241604133233
Mt. Tabor Presbyterian Church,45.51684283834435,-122.60726504349012
Saint Stephen Catholic Church,45.51451735876663,-122.61967667693646
Lincoln Street Methodist Church,45.50820596277558,-122.60906378538863
Saint Marks Lutheran Church,45.49788597686333,-122.60676273252112
La Storta Chapel,45.499514169549904,-122.61722223376556
Saint Ignatius Catholic Church,45.497973023774314,-122.61789666438177
Tenrikyo Portland Church,45.50363808975047,-122.58810206396213
Hội Thánh Cơ Đốc Phục Lâm Việt Nam,45.503053535025664,-122.58487846780929
Kingdom Hall of Jehovah's Witnesses,45.49687542320178,-122.58614448227593
Central Church of the Nazarene,45.497976649791184,-122.563612233815
Pilgrim Lutheran Church,45.49115620269081,-122.56921112622143
Powellhurst Baptist Church,45.49715032707326,-122.54889998001136
Creator Lutheran Church,45.42626502617065,-122.52685716084675
Eastridge Church,45.42334674881191,-122.51819621735474
Valley View Church,45.43296604241889,-122.54410355110214
Spring Mountain Bible Church,45.42435867362633,-122.53898830327192
Tịnh Xá Ngọc Châu,45.490886286431014,-122.52319302086163
Bethany Lutheran Church,46.192135080531116,-123.806258972615
Saint Timothy Lutheran Church,45.49838721311371,-122.51368954884973
Eastside Imago Dei,45.49966640980916,-122.50964667491476
Rose of Sharon Lutheran Brethren Church,45.49580069543254,-122.49707508607682
The Table Church,45.993287357863366,-123.92142324411891
Yachats Community Presbyterian Church,44.31409148659703,-124.1059487758895
Cannon Beach Community Church,45.89528793966317,-123.96111284756621
Revolution Church,45.48024725746948,-122.52890087996728
Bethel Bible Fellowship Church,45.48426680879415,-122.5450264748971
Mount Scott Church of God,45.46985134292746,-122.55418392061166
Tongan Fellowship of the United Methodists,45.488423069051265,-122.56311046802038
The Bridge Church,45.48119688511761,-122.57232229526814
Chinese Christian and Missionary Alliance Church,45.485883784265035,-122.58640281690857
Christian Deaf Church,45.4900262,-122.59043965000001
Calvary Lutheran Church,45.47922848844796,-122.58053860511001
Woodstock Bible Church,45.48601022255999,-122.60958270951892
Calvary Bible Church,45.49009885,-122.6192601
Apostolic Faith Church,45.476476018948425,-122.60598149995869
Our Lady of Sorrows Catholic Church,45.47946177286406,-122.60848511097369
St. Ignatius of Antioch Church,45.469021950000005,-122.61567020000001
Hillside Southeast,45.475622650000005,-122.58881919999999
Flavel Street Baptist Church,45.46900622953482,-122.59199449775612
Kingdom Hall of Jehovah’s Witnesses,45.467851749031766,-122.56699388017745
Portland Pentecostal Church,45.4673007001319,-122.56328112182628
The Church of Jesus Christ of Latter-day Saints,45.44829046775449,-122.52687070352073
Beautiful Savior Lutheran Church,45.45189245242334,-122.56747164957831
Solid Rock Baptist Church,45.455387465525654,-122.57494415992646
Iglesia Adventista del Septimo Dia,45.44907223335209,-122.5984333653376
Wichita Avenue Evangelical Church,45.45478561254592,-122.60127487051892
Kairos-Milwaukie United Church of Christ,45.450023904186274,-122.61352111851184
Thompson Road Bible Fellowship,45.44303622359559,-122.58527893176127
Happy Valley Evangelical Church,45.446733526630226,-122.5313261914778
Legacy Church,45.51783100291089,-122.3757779485318
Iglesia Nueva Vida,45.51365879561883,-122.41191394955347
Saved by Grace Lutheran Church,45.504527951678554,-122.41166552292103
Iglesia De Dios Pentecostal,45.51870645722757,-122.44136852062975
Metro Church of Christ,45.50478457343215,-122.44829253411928
Gresham United Methodist Church,45.502578009309694,-122.43881130718717
Trinity Lutheran Church,45.49742596868374,-122.43722614851838
Tịnh Xá Ngọc Phước,45.510793392861665,-122.48519517026111
Covenant Presbyterian Church,45.50404038128849,-122.47093954401994
The Church of Jesus Christ of Latter-day Saints,45.49628932889798,-122.4747943036621
Clear Creek Church,45.49230163366748,-122.47499498309946
First Church of Christ Scientist,45.497494005187676,-122.44760882387129
Saint Luke the Physician Episcopal Church,45.496349488557804,-122.4465652816046
Lighthouse Community Church,45.494926762062526,-122.42603241646086
River Hills Church,45.49550481805972,-122.41862752592051
Highland Christian Center,45.526194800357,-122.58415203332841
Saint James Lutheran Church,45.515615659357195,-122.68368959654477
"Sixth Church of Christ, Scientist",45.51537372292424,-122.68391345785689
Springwater Baptist Church,45.48257911380774,-122.48806184088076
Sanctuary Church,45.47447095153986,-122.3853670182069
Pleasant Valley Community Baptist Church,45.46398386178911,-122.48163093235874
Lao Buddhist Center Northwest Inc.,45.4624791390234,-122.4808106104031
Powell Valley Covenant Church,45.48674640131718,-122.37349250417165
Columbia Community Bible Church,45.59943498155196,-122.66102468319168
Love Temple Church of God in Christ,45.58817715,-122.75690290000001
Bahá’í Center,45.59032711251594,-122.75660710917474
Bethany Bible Church,45.581353341336566,-122.86585816328626
Saint Birgitta Catholic Church,45.60745264985538,-122.79188480754219
Holbrook Bible Church,45.6665832,-122.87525575
West Union Baptist Church,45.57373155013859,-122.90698542389744
Islamic Community Center of Hillsboro,45.57220856031968,-122.92312796214141
Our Lady of La Vang Catholic Church,45.437686349448605,-122.56566580646358
Christ the King Parish,45.43804526954896,-122.58554498977243
New Harmony Church,45.4337505,-122.58672585
The Church of Jesus Christ of Latter-day Saints,45.42533423040201,-122.59832360114673
Saving Grace Church,45.422081654123915,-122.59252031104562
Clackamas United Congregational Church of Christ,45.41213480471178,-122.59159996924593
Clackamas Bible Church,45.409586207465686,-122.5762856549251
Hope International Baptist Church,45.36892496039497,-122.57296567693946
Abernethy Chapel,45.36058633389346,-122.59893593166058
Reformation Covenant Church,45.358138741450674,-122.5972788582916
,45.346728527368676,-122.59702307372025
Church of the Nazarene,45.352204687021086,-122.59563291258698
The Church of Jesus Christ of Latter-day Saints,45.354719710252,-122.57250210508474
Barton Church,45.38725731930819,-122.40200133810625
Saint Philip Benizi Catholic Church,45.342292900171934,-122.49090077459917
Pathway Church Sandy,45.41425895151949,-122.30440267743884
Arise Family Fellowship,45.40978276621526,-122.30817470418954
Dominion Life Church,45.41013084784035,-122.3050355494417
Hillsview Community Church,45.44756280701006,-122.42312191080082
Cascade Presbyterian Church,44.01972144487409,-123.09263449199506
Living Hope Fellowship,45.49559739332189,-122.86363349251083
West Hills Covenant Church,45.48457637395411,-122.73675478591953
Sonrise Church,45.533122296983905,-122.91073314733438
Hope Fellowship,45.50819787898014,-122.92879554512459
New Hope Christian Fellowship,44.04049758607338,-123.09632219644163
Reformation Lutheran Church,45.50172997088918,-122.93755130874611
River Road Baptist Church,44.081107871459984,-123.12134641879956
New Hope Missionary Baptist Church,45.4893064267982,-122.882708911036
Grace Lutheran Church,42.18313558551887,-122.68946838399907
Aloha Church of God,45.48447985062113,-122.86586548641365
Chùa Phật Quang,45.48550492114178,-122.84139185184733
The Church of Jesus Christ of Latter-day Saints,45.46627681022482,-122.85260497352222
Sisters of Saint Mary of Oregon Church,45.4873079640398,-122.82779013467311
Fountain Gateway Church,45.45452670256924,-122.68276269669035
Beaverton Seventh-day Adventist Church,45.4744400082541,-122.82695104302084
West Hills Community Church,44.970961413246194,-123.06842951479523
The Church of Jesus Christ of Latter-day Saints,44.970876371877395,-123.07227230538354
United Methodist Church,44.27129031926722,-123.16330681864393
Harrisburg Christian Church,44.272838406645626,-123.16623935347725
Kingdom Hall of Jehovah's Witnesses,45.5298847426629,-123.10838072870907
Kingdom Hall of Jehovah's Witnesses,44.276940664120204,-123.17069629089097
Columbia River Foursquare Church,45.86470031139047,-122.82187836303638
Rainier Church of God,46.08933945862981,-122.94044351819915
Rainier United Methodist Church,46.08853055435676,-122.93590058516259
,44.58685301590613,-123.28483204158297
Grace Baptist Church,45.84743728496534,-122.85239355488402
The Church of Jesus Christ of Latter-day Saints,45.85314675654289,-122.83692766996344
Sunset Park Community Church,45.859930420325774,-122.82388631046733
Saint Nicholas Orthodox Church,45.46141194222281,-122.70031015013456
St. Peter the Fisherman Lutheran Church,44.957944185695744,-124.01417078060796
Saint Augustine Catholic Church,44.97338531584153,-124.01446606015975
All Saints Catholic Church,45.526768016317924,-122.62447817776821
Mallory Church of Christ,45.551034025099206,-122.66339134216798
New Creation,45.543897440261944,-122.97741746044709
,45.85871370849072,-122.81727592022241
First united Methodist Church,45.86508537062304,-122.80435839824172
City Life Church,43.796114943049616,-123.03389850296475
Lord's Harvest Church,45.40411570807139,-122.62120515588997
Alison Park Christian Church,44.07871798011184,-123.16870193964981
Saint John the Baptist Catholic Church,42.750050020522025,-124.49700651596744
Dirks Prayer Chapel,45.527331439847494,-122.57624998573512
Iglesia de Restauración,45.434638400000004,-122.7669008
First Assembly of God,44.29432322137205,-120.8477372882864
Saint Joseph - Giáo Họ Thánh Giuse,45.5418071165449,-122.60667059448379
Sangha Jewel Zen Center,44.58665329726336,-123.28418842619573
Cedar Mill Bible Church,45.52575542120455,-122.80242578011472
Tucker Road Baptist Church,45.67821031208291,-121.5330970302006
Our Savior's Lutheran Church,44.8768764882329,-123.02304448978427
Grande Ronde Community Church,45.32939153917432,-118.09020837656084
First Presbyterian Church,45.32685553629849,-118.09402215788845
Faith Christian Center,44.0606372540018,-121.29111267789968
Rose City Park United Methodist Church,45.54192945358282,-122.60315904586506
First Christian Church,45.674400403830795,-118.78935234152608
Saint John in the Woods Catholic Church,45.34349991809324,-121.9539121713447
The Church On The Mountain,45.348366940232765,-121.96203636270066
Hoodland Lutheran Church,45.380103787442074,-122.05551131938937
Saint Philip Neri Catholic Church,45.50510146142173,-122.6478594784226
Shan Creek Community Church,42.46409571269124,-123.5005374526459
Terrebonne Assembly of God,44.35117970827113,-121.17132815495715
Mannahouse Church - Rocky Butte Campus,45.55068176315865,-122.56660420398758
Unitarian Universalist Church,44.04588833552268,-123.11740361286815
Seventh-Day Adventist Church,44.045922140424736,-123.11210539031603
Redeemer Fellowship,44.04622254849772,-123.11862303765703
College Heights Baptist Church,42.417483008781495,-123.36812902245958
First Christian Church,44.04703569943911,-123.09163544563803
The Antioch Missionary Baptist Church,45.566206150000006,-122.67945655
Hinson Baptist Church,45.51459091986307,-122.64607681420198
For His Glory Ministry & Worship Center,42.22706722392547,-121.78364190838779
Glad Tidings Worship Centre,42.22818989374358,-121.78054883887457
Immanuel Baptist Church,42.22887572268232,-121.77979381921811
Baptist Church on Homedale,42.19890935157149,-121.72371563786415
Klamath Christian Center,42.225255277954204,-121.71448286750208
The Church of Jesus Christ of Latter-day Saints,45.9851547079384,-123.91462266731939
United Church of Christ,45.2368483440757,-120.18641134557123
Our Saviours Lutheran Church,45.994818200000005,-123.92597644999998
Saint Alexander Catholic Church,45.52155620090015,-123.0591843839499
Iglesia Roca de Luz Eterna,45.52359821858808,-123.06017703331224
Cornelius Community Church,45.521356088924314,-123.06120100002408
Moreland Presbyterian Church,45.47359230225158,-122.64629991456306
Eckankar,45.46692490000001,-122.64765249999998
Saint John the Baptist Ukrainian Orthodox Church,45.46548159325739,-122.64877892781178
Augustana Lutheran Church,45.54244647305287,-122.65082740495023
Our Lady of Victory Catholic Church,45.9939854827824,-123.9281112414676
Saint Johns Christian Church,45.590728599651506,-122.74931812037683
Portland Hindu Temple,45.436994022781555,-122.76726457992055
Christ the King Lutheran Church,45.41492498827367,-122.7932259031376
Grace Point Community Church,45.41902858921184,-122.79091298857934
The Church of Jesus Christ of Latter-day Saints,45.827541768115324,-119.71137244794686
Westgate Baptist Church,45.44264206270993,-122.80965600132406
Bible Baptist Church,42.433592318611,-123.04881976299924
Harvest Time Fellowship,42.43137595000001,-123.04765625000002
Gold Hill United Methodist Church,42.43241177245975,-123.048203870339
Gold Hill Christian Center,42.434023288900036,-123.0532003284011
Canisius Chapel,45.48557531456527,-122.77018823865005
Southwest Bible Church,45.44879371971744,-122.82721208773674
Mountainview Community Church,42.11268574670691,-122.3857690468533
Hope Fellowship - United Pentecostal Church,43.79637039787424,-123.04824220707287
Calvary Chapel,43.80617527219835,-123.0551645907163
Congregation Beth Israel,45.52589791247859,-122.69122127439454
Crossfire Family Worship Center,44.0109767873852,-123.07752547900114
Guru Ram Das Gurdwara,44.01664926103576,-123.08164109633576
Zion Lutheran Church,45.29830965163695,-122.96888920295822
North Valley Friends,45.328982185688425,-122.96791970105848
Red Hills Church,45.29894578591378,-122.9799431401975
Newburg First United Methodist Church,45.30912422374699,-122.95086545070035
First United Methodist Church,46.18718271459988,-123.83213549736345
Sacred Heart Catholic Church,45.10966281050422,-122.90121711639041
Assembly of God Church,42.57623296780218,-121.8722848190229
Trinity Evangelical Lutheran Church,44.02446614238342,-123.07421051492474
Calvary Chapel Lincoln City,44.933197597095074,-124.02076394918399
The Church in Eugene,44.01445245371359,-123.0838974749445
Meadow Springs Church,45.433938455128825,-122.74171442424324
Heppner United Methodist Church,45.357636585527146,-119.55454218445128
Zoar Lutheran Church,45.26036376376735,-122.69277803112175
Saint Patrick Catholic Church,45.269272153189235,-122.70064034212305
Canby Grove Christian Center,45.268018055534775,-122.71110941821196
Pendleton Church of God,45.65975944702269,-118.80960185372363
Canby Evangelical Church,45.25906633911807,-122.68657865921486
United Pentecostal Church,45.33988756927194,-122.62248709164918
Unitarian Universalist Congregation at Willamette Falls,45.35486125134214,-122.6049058882748
Foundry Church,44.058726401421715,-121.31118630919268
East Hill Church,45.50226187910731,-122.4316677227591
St. Mary's Episcopal Church,44.04524172283416,-123.09018359945637
"First Church of Christ, Scientist",44.04470586487528,-123.0901231469305
Life Church,44.93328425942857,-123.07957045187307
West Salem Foursquare Church,44.94433082604573,-123.0939738546884
The Church of Jesus Christ of Latter-day Saints,44.94212537293523,-123.09391778054828
Salman Alfarisi Islamic Center,44.57391237663749,-123.27546142084876
,45.93616674999999,-118.3951767
Santa Clara Church,44.10146862979568,-123.13348450498411
Grace Lutheran Church,45.42577097635357,-117.28249245441278
Sunnyside Foursquare Church,45.42737807614604,-122.52593890228881
Hillsboro Presbyterian Church,45.521706400535614,-122.94928643236358
Gladstone Park Seventh Day Adventist Church,45.391599008522796,-122.5787676728824
Bethel Congregational United Church of Christ,45.48247598709185,-122.80669146300097
People of Purpose Family Worship Center,45.562519441579255,-122.6650397673568
Berean Baptist Church,45.55813509984899,-122.66792531736141
Maranatha Church of God,45.554150796159306,-122.65306867642167
Calvary Bible Church,45.71890043557495,-123.93193271169407
Capital Baptist Church,44.963168510840845,-122.99718918149786
Oregon City Church of Christ,45.336824039205396,-122.59309357409474
,45.70012972403145,-121.53387243757237
,45.67916762887042,-121.53822223692987
,45.70617286894441,-121.53838883418021
The Church of Jesus Christ of Latter-day Saints,45.70347669513045,-121.53126503645318
First Baptist Church of Odell,45.634138107971296,-121.54439381235034
Philadelphia Romanian Pentecostal Church,45.48258122574708,-122.53023451345193
Golgotha Romanian Pentecostal Church,45.527256305987024,-122.46497726320845
The Church of Jesus Christ of Latter-day Saints,45.49062431558947,-122.78022218422298
Beaverton Foursquare Church,45.50588785427769,-122.81539595165911
,45.54641135662181,-122.49681692964528
Parkrose United Methodist Church,45.54241357211362,-122.54806588676581
Kingdom Hall of Jehovahs Witnesses,45.54330281697979,-122.55747672233186
Tabernacle of Hope Church,45.49655762797203,-122.53608264386642
Church on the Hill,44.840683028076576,-123.00679136441565
Annunciation Orthodox Church,45.42485441626889,-122.60550614320377
Shalom Ethiopian Evangelical Church,45.41639562552383,-122.60402517764524
Parkdale Community Church,45.51986029701559,-121.59404442813857
Mountain View Community Church,45.33252815884091,-122.5848880220442
The Church of Jesus Christ of Latter-day Saints,44.88241889662392,-123.00993072663346
Gloria Dei Lutheran Church,43.38574755040822,-124.22638513980964
New Beginnings Fellowship,44.77247167536271,-117.82957726201597
Desert Streams,44.05198612237213,-121.26251389698233
Baker City United Methodist Church,44.77678214572133,-117.83248059782905
Bethany Presbyterian Church,45.56669515637614,-122.83691734648812
Bend Bible Fellowship,44.05642227499624,-121.33588552031274
First United Methodist Church,44.02985475417424,-116.96415808250721
,44.031116454020804,-116.96902904981827
Church of Christ,44.03066499696475,-116.97910765916357
Discovery Christian,44.062661702134136,-121.31768405984074
Newport Avenue Church of Christ,44.06265286441166,-121.32014327709966
Treasure Valley Church,44.03184916564124,-116.98508437832166
Harvest Rock City Church,44.029982939435186,-116.96281433922519
Blessed Sacrament Catholic Church,44.02695948814993,-116.97381615493379
Good Shepherd Lutheran Church,42.169840292310035,-123.63308157946658
Centro Christano Bethel,44.024732261838906,-116.96696233878242
First Baptist Church,44.025048246340496,-116.97217796506685
Celebration Church of God,44.02423878429945,-116.97596168387574
Church of the Nazerene,43.114956667314075,-123.40774647710684
Saint Mathew's Episcopal Church,44.0204068950157,-116.97107893891041
Saint Paul Lutheran Church,44.02077429885841,-116.98264052615991
,45.65002875461914,-118.78646485467664
First Church of the Nazarene,44.018851074763134,-116.98432365982947
Elkhorn Community Church,44.776044368167035,-117.83358461912466
Calvary Chapel,44.01093559144612,-116.98455236260453
Calvary Chapel,44.01098664928846,-116.98372633103112
Saint Elizabeth of Hungary Catholic Church,44.41375141371506,-118.95338245623863
,44.03182433900545,-116.99035754899133
Sunrise Christian Church,44.019151292522096,-117.00455781908595
City Blessing Church,45.52610538500133,-122.58322900741895
Glisan Street Baptist Church,45.52655015485539,-122.55594087149683
Kingdom Hall of Jehovah's Witnesses,43.586764227114365,-119.06023830912487
Saint Bridget of Kildare Catholic Church,43.88440874414906,-116.99925653911801
The Lighthouse,43.879737705789644,-116.99678315173303
Prairie Baptist Church,44.46422252701295,-118.71188803022025
Assembly of God Church,44.46231354881612,-118.71345841097117
Shasta Way Christian Church,42.21464944587434,-121.71675549089346
The Church of Jesus Christ of Latter-day Saints,42.9775032996113,-117.04930790515259
Saint Bernard Catholic Church,42.9737903,-117.05031420000002
Bethel Lutheran Church,45.56435811394784,-122.68706258288381
Old Timber Church,45.71843235000001,-123.2985561
St. Mary the Virgin Episcopal Church,43.732004246761036,-124.10935426817407
Colton Lutheran Church,45.17177752516374,-122.4378707815507
Southeast Community Church of the Nazarene,45.496341725590995,-122.60532856683014
Lorane Christian Church,43.83745321659579,-123.24084099227001
Peninsula Open Bible Church,45.58243053645324,-122.69755058654923
Kenton Church,45.57737337636634,-122.68831138774623
Peace Lutheran Church,45.57032912249319,-122.68951633540927
Church of Christ of Peninsula,45.5784431751122,-122.71519099286361
United House of Prayer for all People,45.580555286603364,-122.7207509612154
Peninsula Church of the Nazarene,45.589182614908886,-122.74543422587348
,45.49002250251402,-122.59335020100953
Iglesia Ni Cristo,45.488094673781255,-122.59726553154044
Good Shepherd Lutheran Church,44.609924715796396,-123.08019950134928
Resurrection Lutheran Church,45.5351720285729,-122.52637402247038
Gateway Church,45.536893871471825,-122.5257135796616
Lents Gilbert Church of God,45.483091117329124,-122.53726447108434
Church of Korean Martyrs,45.49585202864711,-122.55124154111557
Cherry Park United Methodist Church,45.51102241081094,-122.55298482901027
Grace First Lutheran Church,44.064749980023905,-121.34894719686257
Christ Episcopal Church,45.41978763580537,-122.67639510180082
Lake Oswego First Church,45.423756448969,-122.69379620839446
Joyful Servant Lutheran Church,45.31302780116652,-122.96303733121242
Tịnh Xá Ngọc Sơn,45.46276901024506,-122.57728268617899
Saint Paul Catholic Church,45.211728657385514,-122.97831669647222
Berean Assembly of God,44.047434954907914,-122.89110605437102
,44.59267145531132,-123.2871622274376
West Salem United Methodist Church,44.9419850639607,-123.06006658822206
Central Church of Christ,45.509564830560265,-122.6217014636926
Mennonite Church of Portland,45.5134326535479,-122.62790296389443
Westside Baptist Church,44.10452630970916,-123.15793964592795
Saint James Catholic Church,45.209214187263754,-123.18666851011703
Bible Fellowship,43.22353212289662,-123.3465007708299
St. John Evangelical Lutheran Church,44.93731329422277,-123.02464049654435
,43.25794479660872,-123.35085810749457
Morning Star Community Church,44.887563910608044,-123.0079031098517
Mt. Olive Lutheran Church,45.51597970003623,-123.10517854915733
Cornelius Baptist Church,45.51836586568678,-123.05156653090788
Westside Vineyard Church,45.50786357717793,-122.7349711382879
Nativity Lutheran Church,44.00844348409667,-121.28852614793793
